codigo_ocorrencia,codigo_ocorrencia1,codigo_ocorrencia2,codigo_ocorrencia3,codigo_ocorrencia4,ocorrencia_classificacao,ocorrencia_latitude,ocorrencia_longitude,ocorrencia_cidade,ocorrencia_uf,ocorrencia_pais,ocorrencia_aerodromo,ocorrencia_dia,ocorrencia_hora,investigacao_aeronave_liberada,investigacao_status,divulgacao_relatorio_numero,divulgacao_relatorio_publicado,divulgacao_dia_publicacao,total_recomendacoes,total_aeronaves_envolvidas,ocorrencia_saida_pista
81027,81027,81027,81027,81027,INCIDENTE GRAVE,NULL,NULL,SÃO PAULO,SP,BRASIL,SBSP,2022-10-09,16:30:00,SIM,ATIVA,A DEFINIR,NÃO,NULL,0,1,SIM
81030,81030,81030,81030,81030,INCIDENTE,NULL,NULL,VITÓRIA,ES,BRASIL,SBVT,2022-10-09,16:20:00,SIM,ATIVA,A DEFINIR,NÃO,NULL,0,1,NÃO
81023,81023,81023,81023,81023,INCIDENTE GRAVE,NULL,NULL,AMERICANA,SP,BRASIL,SDAI,2022-10-06,15:30:00,SIM,FINALIZADA,***,NÃO,NULL,0,1,SIM
81029,81029,81029,81029,81029,INCIDENTE,NULL,NULL,BELO HORIZONTE,MG,BRASIL,SBBH,2022-10-06,0:44:00,SIM,FINALIZADA,***,NÃO,NULL,0,1,NÃO
81025,81025,81025,81025,81025,INCIDENTE,NULL,NULL,MANAUS,AM,BRASIL,SBEG,2022-10-05,20:56:00,SIM,FINALIZADA,***,NÃO,NULL,0,1,NÃO
81019,81019,81019,81019,81019,ACIDENTE,NULL,NULL,PORTO ALEGRE,RS,BRASIL,***,2022-10-03,20:50:00,NÃO,ATIVA,A DEFINIR,NÃO,NULL,0,1,NÃO
81022,81022,81022,81022,81022,INCIDENTE,NULL,NULL,LOBATO,PR,BRASIL,***,2022-10-03,15:38:00,SIM,FINALIZADA,***,NÃO,NULL,0,1,NÃO
81021,81021,81021,81021,81021,ACIDENTE,NULL,NULL,NOVA BANDEIRANTES,MT,BRASIL,***,2022-10-02,19:00:00,NÃO,ATIVA,A DEFINIR,NÃO,NULL,0,1,SIM
81009,81009,81009,81009,81009,INCIDENTE GRAVE,NULL,NULL,NAVIRAÍ,MS,BRASIL,**NI,2022-10-01,10:10:00,SIM,FINALIZADA,***,NÃO,NULL,0,1,SIM
81012,81012,81012,81012,81012,INCIDENTE,NULL,NULL,LINHARES,ES,BRASIL,***,2022-09-30,12:20:00,SIM,FINALIZADA,***,NÃO,NULL,0,1,NÃO
81017,81017,81017,81017,81017,INCIDENTE GRAVE,NULL,NULL,GOIÂNIA,GO,BRASIL,SBNV,2022-09-30,13:40:00,SIM,FINALIZADA,***,NÃO,NULL,0,1,SIM
81006,81006,81006,81006,81006,INCIDENTE,NULL,NULL,UBERLÂNDIA,MG,BRASIL,SBUL,2022-09-28,12:55:00,SIM,FINALIZADA,***,NÃO,NULL,0,1,NÃO
81014,81014,81014,81014,81014,ACIDENTE,NULL,NULL,BOA VISTA,RR,BRASIL,***,2022-09-27,0:00:00,SIM,FINALIZADA,***,NÃO,NULL,0,1,NÃO
81003,81003,81003,81003,81003,INCIDENTE GRAVE,NULL,NULL,ARAÇATUBA,SP,BRASIL,SBAU,2022-09-26,18:30:00,SIM,FINALIZADA,***,NÃO,NULL,0,1,NÃO
81001,81001,81001,81001,81001,INCIDENTE,NULL,NULL,BRAGANÇA PAULISTA,SP,BRASIL,SBBP,2022-09-25,20:00:00,SIM,FINALIZADA,***,NÃO,NULL,0,1,NÃO
81018,81018,81018,81018,81018,ACIDENTE,NULL,NULL,LONTRAS,SC,BRASIL,***,2022-09-24,20:05:00,NÃO,ATIVA,A-108/CENIPA/2022,NÃO,NULL,0,1,NÃO
81000,81000,81000,81000,81000,INCIDENTE,NULL,NULL,TERESINA,PI,BRASIL,SBTE,2022-09-22,9:50:00,SIM,FINALIZADA,***,NÃO,NULL,0,1,NÃO
81002,81002,81002,81002,81002,INCIDENTE,NULL,NULL,QUERÊNCIA,MT,BRASIL,***,2022-09-22,18:00:00,SIM,FINALIZADA,***,NÃO,NULL,0,1,NÃO
80997,80997,80997,80997,80997,INCIDENTE,NULL,NULL,GUARULHOS,SP,BRASIL,SBGR,2022-09-21,11:30:00,SIM,FINALIZADA,***,NÃO,NULL,0,1,NÃO
80998,80998,80998,80998,80998,ACIDENTE,NULL,NULL,ENGENHEIRO CALDAS,MG,BRASIL,***,2022-09-21,17:51:00,NÃO,ATIVA,A-107/CENIPA/2022,NÃO,NULL,0,1,NÃO
80993,80993,80993,80993,80993,ACIDENTE,NULL,NULL,SÃO PAULO,SP,BRASIL,SBMT,2022-09-20,9:05:00,NÃO,ATIVA,A DEFINIR,NÃO,NULL,0,1,NÃO
80995,80995,80995,80995,80995,INCIDENTE,NULL,NULL,URUARÁ,PA,BRASIL,***,2022-09-20,14:00:00,SIM,FINALIZADA,***,NÃO,NULL,0,1,NÃO
80996,80996,80996,80996,80996,INCIDENTE,NULL,NULL,CAMPO LARGO,PR,BRASIL,***,2022-09-20,18:17:00,SIM,FINALIZADA,***,NÃO,NULL,0,1,NÃO
80994,80994,80994,80994,80994,INCIDENTE,NULL,NULL,CURITIBA,PR,BRASIL,SBCT,2022-09-19,18:40:00,SIM,FINALIZADA,***,NÃO,NULL,0,1,NÃO
80990,80990,80990,80990,80990,INCIDENTE,NULL,NULL,SOCORRO,SP,BRASIL,**NI,2022-09-17,16:45:00,SIM,FINALIZADA,***,NÃO,NULL,0,1,NÃO
80989,80989,80989,80989,80989,INCIDENTE,NULL,NULL,BELO HORIZONTE,MG,BRASIL,SBBH,2022-09-16,18:48:00,SIM,FINALIZADA,***,NÃO,NULL,0,1,NÃO
81007,81007,81007,81007,81007,INCIDENTE,NULL,NULL,NÃO IDENTIFICADA,PR,BRASIL,***,2022-09-16,19:40:00,SIM,FINALIZADA,***,NÃO,NULL,0,1,NÃO
80987,80987,80987,80987,80987,INCIDENTE,NULL,NULL,CONFINS,MG,BRASIL,SBCF,2022-09-15,15:12:00,SIM,FINALIZADA,***,NÃO,NULL,0,1,NÃO
80988,80988,80988,80988,80988,INCIDENTE GRAVE,NULL,NULL,CACHOEIRA DO ARARI,PA,BRASIL,SIEK,2022-09-15,16:20:00,SIM,FINALIZADA,***,NÃO,NULL,0,1,NÃO
81004,81004,81004,81004,81004,INCIDENTE GRAVE,NULL,NULL,TERESINA,PI,BRASIL,SBTE,2022-09-15,12:50:00,SIM,ATIVA,A DEFINIR,NÃO,NULL,0,2,NÃO
81026,81026,81026,81026,81026,INCIDENTE,NULL,NULL,RIO DE JANEIRO,RJ,BRASIL,SBRJ,2022-09-14,1:19:00,SIM,FINALIZADA,***,NÃO,NULL,0,1,NÃO
80982,80982,80982,80982,80982,INCIDENTE,NULL,NULL,SÃO PAULO,SP,BRASIL,SBSP,2022-09-13,11:30:00,SIM,FINALIZADA,***,NÃO,NULL,0,1,NÃO
80980,80980,80980,80980,80980,ACIDENTE,NULL,NULL,LENÇÓIS PAULISTA,SP,BRASIL,SDLP,2022-09-11,17:00:00,SIM,ATIVA,A DEFINIR,NÃO,NULL,0,1,NÃO
80981,80981,80981,80981,80981,INCIDENTE,NULL,NULL,CANTÁ,RR,BRASIL,SWPD,2022-09-11,13:30:00,SIM,FINALIZADA,***,NÃO,NULL,0,1,NÃO
80969,80969,80969,80969,80969,INCIDENTE,NULL,NULL,MARABÁ,PA,BRASIL,SBMA,2022-09-10,17:45:00,SIM,ATIVA,A DEFINIR,NÃO,NULL,0,1,NÃO
80971,80971,80971,80971,80971,ACIDENTE,NULL,NULL,ORIXIMINÁ,PA,BRASIL,***,2022-09-10,13:50:00,SIM,ATIVA,A-103/CENIPA/2022,NÃO,NULL,0,1,NÃO
80977,80977,80977,80977,80977,INCIDENTE GRAVE,NULL,NULL,TRÊS LAGOAS,MS,BRASIL,***,2022-09-10,12:20:00,SIM,FINALIZADA,***,NÃO,NULL,0,1,NÃO
80979,80979,80979,80979,80979,ACIDENTE,NULL,NULL,ALTO ARAGUAIA,MT,BRASIL,***,2022-09-10,22:00:00,SIM,ATIVA,A DEFINIR,NÃO,NULL,0,1,NÃO
80970,80970,80970,80970,80970,INCIDENTE,NULL,NULL,BENEVIDES,PA,BRASIL,SNYP,2022-09-09,14:00:00,SIM,FINALIZADA,***,NÃO,NULL,0,1,NÃO
80976,80976,80976,80976,80976,INCIDENTE,NULL,NULL,ITAJUBÁ,MG,BRASIL,SNHH,2022-09-09,15:30:00,SIM,FINALIZADA,***,NÃO,NULL,0,1,NÃO
80978,80978,80978,80978,80978,ACIDENTE,NULL,NULL,SANTA HELENA DE GOIÁS,GO,BRASIL,***,2022-09-09,15:40:00,SIM,ATIVA,A DEFINIR,NÃO,NULL,0,1,NÃO
80966,80966,80966,80966,80966,ACIDENTE,NULL,NULL,JUIZ DE FORA,MG,BRASIL,SBJF,2022-09-08,20:10:00,SIM,ATIVA,A DEFINIR,NÃO,NULL,0,1,SIM
80955,80955,80955,80955,80955,INCIDENTE,NULL,NULL,CUIABÁ,MT,BRASIL,SBCY,2022-09-06,17:40:00,SIM,FINALIZADA,***,NÃO,NULL,0,1,NÃO
80961,80961,80961,80961,80961,ACIDENTE,NULL,NULL,MONTE SANTO,BA,BRASIL,***,2022-09-06,13:30:00,SIM,ATIVA,A-099/CENIPA/2022,NÃO,NULL,0,1,NÃO
80972,80972,80972,80972,80972,INCIDENTE,NULL,NULL,VÁRZEA GRANDE,MT,BRASIL,SBCY,2022-09-06,15:37:00,SIM,FINALIZADA,***,NÃO,NULL,0,1,NÃO
80974,80974,80974,80974,80974,INCIDENTE,NULL,NULL,PORTO SEGURO,BA,BRASIL,SBPS,2022-09-06,16:50:00,SIM,FINALIZADA,***,NÃO,NULL,0,1,NÃO
80958,80958,80958,80958,80958,INCIDENTE,NULL,NULL,MONTES CLAROS,MG,BRASIL,SBMK,2022-09-05,20:40:00,SIM,FINALIZADA,***,NÃO,NULL,0,1,NÃO
80975,80975,80975,80975,80975,INCIDENTE,NULL,NULL,BELO HORIZONTE,MG,BRASIL,SBBH,2022-09-04,17:07:00,SIM,FINALIZADA,***,NÃO,NULL,0,1,SIM
80954,80954,80954,80954,80954,ACIDENTE,NULL,NULL,NAVEGANTES,SC,BRASIL,SBNF,2022-09-02,11:40:00,SIM,ATIVA,A DEFINIR,NÃO,NULL,0,1,NÃO
80963,80963,80963,80963,80963,INCIDENTE,NULL,NULL,CURITIBA,PR,BRASIL,SBCT,2022-09-02,23:03:00,SIM,FINALIZADA,***,NÃO,NULL,0,1,NÃO
80968,80968,80968,80968,80968,INCIDENTE,NULL,NULL,TEFÉ,AM,BRASIL,SBTF,2022-09-02,22:28:00,SIM,FINALIZADA,***,NÃO,NULL,0,1,NÃO
80973,80973,80973,80973,80973,INCIDENTE,NULL,NULL,RIO DE JANEIRO,RJ,BRASIL,SBRJ,2022-09-02,23:20:00,SIM,FINALIZADA,***,NÃO,NULL,0,1,NÃO
80952,80952,80952,80952,80952,ACIDENTE,NULL,NULL,ELDORADO DO SUL,RS,BRASIL,SSMK,2022-09-01,18:00:00,NÃO,ATIVA,A DEFINIR,NÃO,NULL,0,1,NÃO
80951,80951,80951,80951,80951,INCIDENTE GRAVE,NULL,NULL,ASSIS,SP,BRASIL,SNAX,2022-08-31,18:45:00,SIM,FINALIZADA,***,NÃO,NULL,0,1,SIM
80960,80960,80960,80960,80960,INCIDENTE,NULL,NULL,CAMPINAS,SP,BRASIL,SBKP,2022-08-31,16:09:00,SIM,FINALIZADA,***,NÃO,NULL,0,1,NÃO
80985,80985,80985,80985,80985,INCIDENTE,NULL,NULL,CAMPINAS,SP,BRASIL,SBKP,2022-08-31,16:09:00,SIM,FINALIZADA,***,NÃO,NULL,0,1,NÃO
80938,80938,80938,80938,80938,INCIDENTE,-5.368055556,-49.13805556,MARABÁ,PA,BRASIL,SBMA,2022-08-29,NULL,SIM,FINALIZADA,***,NÃO,NULL,0,1,NÃO
80956,80956,80956,80956,80956,INCIDENTE,NULL,NULL,FORTALEZA,CE,BRASIL,SBFZ,2022-08-29,12:04:00,SIM,FINALIZADA,***,NÃO,NULL,0,1,NÃO
80940,80940,80940,80940,80940,ACIDENTE,NULL,NULL,RIBAS DO RIO PARDO,MS,BRASIL,***,2022-08-28,20:30:00,SIM,ATIVA,A DEFINIR,NÃO,NULL,0,1,NÃO
80945,80945,80945,80945,80945,ACIDENTE,NULL,NULL,PARÁ DE MINAS,MG,BRASIL,SNPA,2022-08-28,20:00:00,SIM,ATIVA,A DEFINIR,NÃO,NULL,0,1,SIM
80948,80948,80948,80948,80948,INCIDENTE,NULL,NULL,CURITIBA,PR,BRASIL,SBCT,2022-08-28,12:30:00,SIM,FINALIZADA,***,NÃO,NULL,0,1,NÃO
80950,80950,80950,80950,80950,INCIDENTE,NULL,NULL,GUARULHOS,SP,BRASIL,SBGR,2022-08-28,12:30:00,SIM,FINALIZADA,***,NÃO,NULL,0,1,NÃO
80942,80942,80942,80942,80942,ACIDENTE,NULL,NULL,CAMPO LARGO,PR,BRASIL,***,2022-08-27,20:30:00,SIM,ATIVA,A-094/CENIPA/2022,NÃO,NULL,0,1,NÃO
80953,80953,80953,80953,80953,INCIDENTE,NULL,NULL,SÃO PAULO,SP,BRASIL,SBMT,2022-08-27,23:15:00,SIM,FINALIZADA,***,NÃO,NULL,0,1,NÃO
80941,80941,80941,80941,80941,INCIDENTE GRAVE,NULL,NULL,IMPERATRIZ,MA,BRASIL,SBIZ,2022-08-26,11:58:00,SIM,FINALIZADA,***,NÃO,NULL,0,1,SIM
80967,80967,80967,80967,80967,INCIDENTE,NULL,NULL,BARRA VELHA,SC,BRASIL,***,2022-08-26,19:30:00,SIM,FINALIZADA,***,NÃO,NULL,0,1,NÃO
80936,80936,80936,80936,80936,INCIDENTE,-6.641388889,-51.95222222,SÃO FÉLIX DO XINGU,PA,BRASIL,SNFX,2022-08-25,15:55:00,SIM,FINALIZADA,***,NÃO,NULL,0,1,NÃO
80935,80935,80935,80935,80935,INCIDENTE,-22.43166,-47.5625,RIO CLARO,SP,BRASIL,SDRK,2022-08-24,20:15:00,SIM,FINALIZADA,***,NÃO,NULL,0,1,NÃO
80931,80931,80931,80931,80931,ACIDENTE,-22.9725,-46.68833333,BRAGANÇA PAULISTA,SP,BRASIL,**NI,2022-08-22,23:20:00,SIM,ATIVA,A-093/CENIPA/2022,NÃO,NULL,0,1,NÃO
80925,80925,80925,80925,80925,INCIDENTE GRAVE,-23.508989,-46.638352,SÃO PAULO,SP,BRASIL,SBMT,2022-08-20,19:00:00,SIM,FINALIZADA,***,NÃO,NULL,0,1,NÃO
80929,80929,80929,80929,80929,INCIDENTE GRAVE,-20.790562,-51.187308,ANDRADINA,SP,BRASIL,***,2022-08-20,20:00:00,SIM,FINALIZADA,***,NÃO,NULL,0,1,NÃO
80939,80939,80939,80939,80939,INCIDENTE,-8.126388889,-34.92277778,RECIFE,PE,BRASIL,SBRF,2022-08-20,16:35:00,SIM,FINALIZADA,***,NÃO,NULL,0,1,NÃO
80947,80947,80947,80947,80947,INCIDENTE,NULL,NULL,MANAUS,AM,BRASIL,SBEG,2022-08-20,8:13:00,SIM,FINALIZADA,***,NÃO,NULL,0,1,NÃO
80923,80923,80923,80923,80923,INCIDENTE GRAVE,-19.85194,-43.95055,BELO HORIZONTE,MG,BRASIL,SBBH,2022-08-19,16:06:00,NÃO,ATIVA,IG-092/CENIPA/2022,NÃO,NULL,0,1,NÃO
80924,80924,80924,80924,80924,INCIDENTE GRAVE,-21.52611111,-57.02861111,PORTO MURTINHO,MS,BRASIL,**NI,2022-08-19,18:40:00,SIM,FINALIZADA,***,NÃO,NULL,0,1,NÃO
80926,80926,80926,80926,80926,INCIDENTE,-30.189167,-51.1825,PORTO ALEGRE,RS,BRASIL,SSBN,2022-08-19,14:10:00,SIM,FINALIZADA,***,NÃO,NULL,0,1,NÃO
80934,80934,80934,80934,80934,INCIDENTE GRAVE,-19.90916,-43.98916,BELO HORIZONTE,MG,BRASIL,SBPR,2022-08-19,19:00:00,SIM,FINALIZADA,***,NÃO,NULL,0,1,NÃO
80943,80943,80943,80943,80943,INCIDENTE,NULL,NULL,GUARAQUEÇABA,PR,BRASIL,***,2022-08-18,17:30:00,SIM,FINALIZADA,***,NÃO,NULL,0,1,NÃO
80949,80949,80949,80949,80949,INCIDENTE,NULL,NULL,SÃO JOSÉ DOS CAMPOS,SP,BRASIL,SBSJ,2022-08-18,0:30:00,SIM,FINALIZADA,***,NÃO,NULL,0,1,NÃO
80932,80932,80932,80932,80932,INCIDENTE,-22.81,-43.25055556,RIO DE JANEIRO,RJ,BRASIL,SBRJ,2022-08-17,9:49:00,SIM,FINALIZADA,***,NÃO,NULL,0,1,NÃO
80962,80962,80962,80962,80962,INCIDENTE,NULL,NULL,CAMPINAS,SP,BRASIL,SBKP,2022-08-17,10:52:00,SIM,FINALIZADA,***,NÃO,NULL,0,1,NÃO
80922,80922,80922,80922,80922,INCIDENTE GRAVE,-23.928056,-46.299722,GUARUJÁ,SP,BRASIL,SBST,2022-08-16,13:00:00,SIM,FINALIZADA,***,NÃO,NULL,0,1,NÃO
80915,80915,80915,80915,80915,INCIDENTE,-16.6325,-49.221111,GOIÂNIA,GO,BRASIL,SBGO,2022-08-15,9:25:00,SIM,FINALIZADA,***,NÃO,NULL,0,1,NÃO
80919,80919,80919,80919,80919,INCIDENTE,-23.47777778,-47.49,SOROCABA,SP,BRASIL,SDCO,2022-08-15,11:30:00,SIM,FINALIZADA,***,NÃO,NULL,0,1,NÃO
80920,80920,80920,80920,80920,ACIDENTE,-22.99666,-43.38805,RIO DE JANEIRO,RJ,BRASIL,***,2022-08-15,18:30:00,NÃO,ATIVA,A-091/CENIPA/2022,NÃO,NULL,0,1,NÃO
81008,81008,81008,81008,81008,INCIDENTE,NULL,NULL,GUARULHOS,SP,BRASIL,SBGR,2022-08-15,3:15:00,SIM,FINALIZADA,***,NÃO,NULL,0,1,NÃO
80921,80921,80921,80921,80921,ACIDENTE,-2.48055,-44.24333,SÃO LUÍS,MA,BRASIL,***,2022-08-14,19:00:00,SIM,FINALIZADA,***,NÃO,NULL,0,1,NÃO
80927,80927,80927,80927,80927,INCIDENTE,-15.65,-56.1175,VÁRZEA GRANDE,MT,BRASIL,SBCY,2022-08-14,21:52:00,SIM,FINALIZADA,***,NÃO,NULL,0,1,NÃO
80928,80928,80928,80928,80928,INCIDENTE,-23.00694444,-47.13444444,CAMPINAS,SP,BRASIL,SBKP,2022-08-14,5:11:00,SIM,FINALIZADA,***,NÃO,NULL,0,1,NÃO
80916,80916,80916,80916,80916,INCIDENTE GRAVE,-12.91055,-38.32722,SALVADOR,BA,BRASIL,SBSV,2022-08-13,14:15:00,SIM,ATIVA,IG-090/CENIPA/2022,NÃO,NULL,0,1,SIM
80914,80914,80914,80914,80914,INCIDENTE GRAVE,-20.51777778,-47.23666667,FRANCA,SP,BRASIL,***,2022-08-12,10:45:00,SIM,FINALIZADA,***,NÃO,NULL,0,1,NÃO
80917,80917,80917,80917,80917,INCIDENTE GRAVE,-16.6325,-49.221111,GOIÂNIA,GO,BRASIL,SBGO,2022-08-12,20:00:00,SIM,ATIVA,IG-089/CENIPA/2022,NÃO,NULL,0,1,NÃO
80964,80964,80964,80964,80964,INCIDENTE,NULL,NULL,PALMAS,TO,BRASIL,SBPJ,2022-08-11,5:31:00,SIM,FINALIZADA,***,NÃO,NULL,0,1,NÃO
80908,80908,80908,80908,80908,INCIDENTE,-23.477778,-47.49,SOROCABA,SP,BRASIL,SDCO,2022-08-10,14:50:00,SIM,FINALIZADA,***,NÃO,NULL,0,1,NÃO
80912,80912,80912,80912,80912,INCIDENTE,-22.81,-43.25055556,RIO DE JANEIRO,RJ,BRASIL,SBGL,2022-08-10,10:09:00,SIM,FINALIZADA,***,NÃO,NULL,0,1,NÃO
80907,80907,80907,80907,80907,INCIDENTE,-5.36333,-49.13166,MARABÁ,PA,BRASIL,SBMA,2022-08-09,18:00:00,SIM,FINALIZADA,***,NÃO,NULL,0,1,NÃO
80910,80910,80910,80910,80910,INCIDENTE,-5.43138,-51.02416,SÃO FÉLIX DO XINGU,PA,BRASIL,***,2022-08-09,18:24:00,SIM,FINALIZADA,***,NÃO,NULL,0,1,NÃO
80904,80904,80904,80904,80904,ACIDENTE,-16.6232,-49.351972,GOIÂNIA,GO,BRASIL,SBNV,2022-08-07,14:50:00,SIM,ATIVA,A-088/CENIPA/2022,NÃO,NULL,0,1,SIM
80906,80906,80906,80906,80906,INCIDENTE,-8.126388889,-34.92277778,RECIFE,PE,BRASIL,SBRF,2022-08-07,0:28:00,SIM,FINALIZADA,***,NÃO,NULL,0,1,NÃO
80902,80902,80902,80902,80902,INCIDENTE,-16.585289,-54.724804,RONDONÓPOLIS,MT,BRASIL,SBRD,2022-08-06,14:45:00,SIM,FINALIZADA,***,NÃO,NULL,0,1,NÃO
80913,80913,80913,80913,80913,INCIDENTE,-23.435556,-46.473056,GUARULHOS,SP,BRASIL,SBGR,2022-08-06,14:00:00,SIM,FINALIZADA,***,NÃO,NULL,0,1,NÃO
80899,80899,80899,80899,80899,ACIDENTE,-23.416111°,-46.708611°,SÃO PAULO,SP,BRASIL,***,2022-08-05,21:40:00,SIM,ATIVA,A-087/CENIPA/2022,NÃO,NULL,0,1,NÃO
80905,80905,80905,80905,80905,INCIDENTE,-1.437777778,-48.13555556,BELÉM,PA,BRASIL,SBBE,2022-08-05,19:09:00,SIM,FINALIZADA,***,NÃO,NULL,0,1,NÃO
80911,80911,80911,80911,80911,INCIDENTE,-27.131667,-52.676389,CHAPECÓ,SC,BRASIL,SBCH,2022-08-05,17:22:00,SIM,FINALIZADA,***,NÃO,NULL,0,2,NÃO
80898,80898,80898,80898,80898,INCIDENTE GRAVE,-23.330278,-51.136667,LONDRINA,PR,BRASIL,SBLO,2022-08-04,21:10:00,SIM,FINALIZADA,***,NÃO,NULL,0,1,SIM
80900,80900,80900,80900,80900,INCIDENTE,-9.3625,-40.56916667,PETROLINA,PE,BRASIL,SBPL,2022-08-04,18:56:00,SIM,FINALIZADA,***,NÃO,NULL,0,1,NÃO
80959,80959,80959,80959,80959,INCIDENTE GRAVE,NULL,NULL,GOIÂNIA,GO,BRASIL,SBGO,2022-08-03,20:50:00,SIM,ATIVA,A DEFINIR,NÃO,NULL,0,2,NÃO
80895,80895,80895,80895,80895,INCIDENTE GRAVE,-16.70611111,-43.82194444,MONTES CLAROS,MG,BRASIL,SBMK,2022-08-02,15:05:00,SIM,FINALIZADA,***,NÃO,NULL,0,1,NÃO
80894,80894,80894,80894,80894,INCIDENTE,-15.438611,-51.598333,JUSSARA,GO,BRASIL,SWGW,2022-07-31,13:30:00,SIM,FINALIZADA,***,NÃO,NULL,0,1,NÃO
80887,80887,80887,80887,80887,INCIDENTE,-22.81,-43.250556,RIO DE JANEIRO,RJ,BRASIL,SBGL,2022-07-30,1:23:00,SIM,FINALIZADA,***,NÃO,NULL,0,1,NÃO
80886,80886,80886,80886,80886,INCIDENTE,-7.27888,-64.76944,LÁBREA,AM,BRASIL,SWLB,2022-07-29,17:12:00,SIM,FINALIZADA,***,NÃO,NULL,0,1,NÃO
80891,80891,80891,80891,80891,INCIDENTE,-23.626111,-46.656389,SÃO PAULO,SP,BRASIL,SBSP,2022-07-29,20:50:00,SIM,FINALIZADA,***,NÃO,NULL,0,1,NÃO
80896,80896,80896,80896,80896,INCIDENTE,-23.006944,-47.134444,CAMPINAS,SP,BRASIL,SBKP,2022-07-29,23:40:00,SIM,FINALIZADA,***,NÃO,NULL,0,1,NÃO
81010,81010,81010,81010,81010,INCIDENTE,NULL,NULL,BELÉM,PA,BRASIL,SBBE,2022-07-28,20:01:00,SIM,FINALIZADA,***,NÃO,NULL,0,1,NÃO
80882,80882,80882,80882,80882,INCIDENTE,-22.3436,-49.0538,BAURU,SP,BRASIL,SBBU,2022-07-27,17:30:00,SIM,FINALIZADA,***,NÃO,NULL,0,2,NÃO
80883,80883,80883,80883,80883,INCIDENTE,-1.384722,-48.478889,BELÉM,PA,BRASIL,SBBE,2022-07-27,19:18:00,SIM,FINALIZADA,***,NÃO,NULL,0,1,NÃO
80884,80884,80884,80884,80884,INCIDENTE,-0.05117,-51.07072,MACAPÁ,AP,BRASIL,SBMQ,2022-07-27,18:20:00,SIM,FINALIZADA,***,NÃO,NULL,0,1,NÃO
80885,80885,80885,80885,80885,ACIDENTE,-14,,,,,,,,,,,,,,,
80879,80879,80879,80879,80879,ACIDENTE,-21.065556,-54.113889,CAMPO GRANDE,MS,BRASIL,***,2022-07-26,20:02:00,SIM,ATIVA,A-085/CENIPA/2022,NÃO,NULL,0,1,NÃO
80897,80897,80897,80897,80897,INCIDENTE GRAVE,-22.96138889,-43.65944444,RIO DE JANEIRO,RJ,BRASIL,SIAN,2022-07-26,18:30:00,SIM,FINALIZADA,***,NÃO,NULL,0,1,SIM
80874,80874,80874,80874,80874,INCIDENTE,-22.983333,-47.483333,CAPIVARI,SP,BRASIL,***,2022-07-25,16:40:00,SIM,FINALIZADA,***,NÃO,NULL,0,1,NÃO
80878,80878,80878,80878,80878,INCIDENTE,-26.223056,-48.797778,JOINVILLE,SC,BRASIL,SBJV,2022-07-25,20:09:00,SIM,FINALIZADA,***,NÃO,NULL,0,1,NÃO
80881,80881,80881,80881,80881,INCIDENTE,-23.429167,-51.423333,ARAPONGAS,PR,BRASIL,***,2022-07-25,12:38:00,SIM,FINALIZADA,***,NÃO,NULL,0,1,NÃO
80873,80873,80873,80873,80873,INCIDENTE,-3.04111,-60.05055,MANAUS,AM,BRASIL,SBEG,2022-07-24,23:30:00,SIM,FINALIZADA,***,NÃO,NULL,0,1,NÃO
80876,80876,80876,80876,80876,INCIDENTE,-8.03151,-49.98016,REDENÇÃO,PA,BRASIL,SNDC,2022-07-24,15:25:00,SIM,FINALIZADA,***,NÃO,NULL,0,1,NÃO
80872,80872,80872,80872,80872,INCIDENTE,-22.81,-43.250556,RIO DE JANEIRO,RJ,BRASIL,SBGL,2022-07-22,6:20:00,SIM,FINALIZADA,***,NÃO,NULL,0,1,NÃO
80875,80875,80875,80875,80875,INCIDENTE,-25.403319,-49.232595,CURITIBA,PR,BRASIL,SBBI,2022-07-22,21:44:00,SIM,FINALIZADA,***,NÃO,NULL,0,1,SIM
80877,80877,80877,80877,80877,INCIDENTE,-8.126389,-34.922778,RECIFE,PE,BRASIL,SBRF,2022-07-22,8:45:00,SIM,FINALIZADA,***,NÃO,NULL,0,1,NÃO
80866,80866,80866,80866,80866,INCIDENTE,-19.624444,-43.971944,CONFINS,MG,BRASIL,SBCF,2022-07-20,14:08:00,SIM,FINALIZADA,***,NÃO,NULL,0,1,NÃO
80869,80869,80869,80869,80869,INCIDENTE,-22.93277,-43.71944,RIO DE JANEIRO,RJ,BRASIL,SBSC,2022-07-19,20:15:00,SIM,FINALIZADA,***,NÃO,NULL,0,1,NÃO
80870,80870,80870,80870,80870,INCIDENTE,-20.505556,-54.524722,CAMPO GRANDE,MS,BRASIL,SSKG,2022-07-19,18:38:00,SIM,FINALIZADA,***,NÃO,NULL,0,2,NÃO
80871,80871,80871,80871,80871,ACIDENTE,-22,,,,,,,,,,,,,,,
80903,80903,80903,80903,80903,INCIDENTE GRAVE,-24.566944,-52.578611,NOVA CANTU,PR,BRASIL,***,2022-07-19,13:26:00,SIM,FINALIZADA,***,NÃO,NULL,0,1,NÃO
80862,80862,80862,80862,80862,INCIDENTE,-23.626111,-46.656389,SÃO PAULO,SP,BRASIL,SBSP,2022-07-18,12:54:00,SIM,FINALIZADA,***,NÃO,NULL,0,2,NÃO
80864,80864,80864,80864,80864,INCIDENTE,-1.381944,-48.478611,BELÉM,PA,BRASIL,SBBE,2022-07-18,14:25:00,SIM,FINALIZADA,***,NÃO,NULL,0,1,NÃO
80863,80863,80863,80863,80863,INCIDENTE,-15.879493,-47.923143,BRASÍLIA,DF,BRASIL,SBBR,2022-07-17,20:35:00,SIM,FINALIZADA,***,NÃO,NULL,0,1,NÃO
80861,80861,80861,80861,80861,INCIDENTE,-22.202,-40.83,CAMPOS DOS GOYTACAZES,RJ,BRASIL,***,2022-07-16,18:25:00,SIM,FINALIZADA,***,NÃO,NULL,0,1,NÃO
80860,80860,80860,80860,80860,INCIDENTE,-22.515556,-41.916389,RIO DAS OSTRAS,RJ,BRASIL,**NI,2022-07-15,0:30:00,SIM,FINALIZADA,***,NÃO,NULL,0,1,NÃO
80858,80858,80858,80858,80858,ACIDENTE,2.440402,-60.926722,MUCAJAÍ,RR,BRASIL,***,2022-07-13,15:30:00,SIM,FINALIZADA,***,NÃO,NULL,0,1,NÃO
80856,80856,80856,80856,80856,ACIDENTE,-2.728333,-60.812778,BOA VISTA,RR,BRASIL,***,2022-07-12,10:40:00,SIM,ATIVA,A-083/CENIPA/2022,NÃO,NULL,0,1,NÃO
80890,80890,80890,80890,80890,INCIDENTE,-15.651767,-56.117348,CUIABÁ,MT,BRASIL,SBCY,2022-07-12,14:50:00,SIM,FINALIZADA,***,NÃO,NULL,0,1,NÃO
80854,80854,80854,80854,80854,ACIDENTE,-14.70485458,-59.28898339,CONQUISTA D'OESTE,MT,BRASIL,***,2022-07-11,19:30:00,SIM,FINALIZADA,***,NÃO,NULL,0,1,NÃO
81011,81011,81011,81011,81011,INCIDENTE,NULL,NULL,RIO DE JANEIRO,RJ,BRASIL,SBRJ,2022-07-10,11:00:00,SIM,FINALIZADA,***,NÃO,NULL,0,1,NÃO
80846,80846,80846,80846,80846,INCIDENTE,-29.1485615,-51.536753,BENTO GONÇALVES,RS,BRASIL,SSBG,2022-07-09,18:55:00,SIM,FINALIZADA,***,NÃO,NULL,0,1,NÃO
80853,80853,80853,80853,80853,INCIDENTE,-15.65,-56.1175,VÁRZEA GRANDE,MT,BRASIL,SBCY,2022-07-09,15:30:00,SIM,FINALIZADA,***,NÃO,NULL,0,1,NÃO
80841,80841,80841,80841,80841,INCIDENTE GRAVE,-18.435556,-49.874444,INACIOLÂNDIA,GO,BRASIL,**NI,2022-07-08,14:00:00,SIM,FINALIZADA,***,NÃO,NULL,0,1,NÃO
80857,80857,80857,80857,80857,INCIDENTE,-22.81,43.25056,RIO DE JANEIRO,RJ,BRASIL,SBGL,2022-07-07,17:30:00,SIM,FINALIZADA,***,NÃO,NULL,0,1,NÃO
80842,80842,80842,80842,80842,INCIDENTE GRAVE,-13.263902,-56.024576,LUCAS DO RIO VERDE,MT,BRASIL,***,2022-07-06,21:50:00,SIM,FINALIZADA,***,NÃO,NULL,0,1,NÃO
80837,80837,80837,80837,80837,INCIDENTE GRAVE,-7.03444,-71.68694,IPIXUNA,AM,BRASIL,**NI,2022-07-05,21:22:00,SIM,FINALIZADA,***,NÃO,NULL,0,1,SIM
80838,80838,80838,80838,80838,ACIDENTE,-12.537611,-56.202528,TAPURAH,MT,BRASIL,***,2022-07-05,13:30:00,SIM,ATIVA,A-082/CENIPA/2022,NÃO,NULL,0,1,NÃO
80839,80839,80839,80839,80839,INCIDENTE,-23.228889,-45.871111,SÃO JOSÉ DOS CAMPOS,SP,BRASIL,SBSJ,2022-07-05,18:25:00,SIM,FINALIZADA,***,NÃO,NULL,0,1,NÃO
80843,80843,80843,80843,80843,INCIDENTE,-23.00694444,-47.13444444,CONFINS,MG,BRASIL,SBCF,2022-07-05,6:23:00,SIM,FINALIZADA,***,NÃO,NULL,0,1,NÃO
80834,80834,80834,80834,80834,INCIDENTE,-39,,,,,,,,,,,,,,,
80836,80836,80836,80836,80836,ACIDENTE,-12,,,,,,,,,,,,,,,
80850,80850,80850,80850,80850,INCIDENTE,-26.217222,-52.694444,PATO BRANCO,PR,BRASIL,SBPO,2022-07-03,20:10:00,SIM,FINALIZADA,***,NÃO,NULL,0,1,NÃO
80830,80830,80830,80830,80830,INCIDENTE,-9.24527,-63.55666,CANDEIAS DO JAMARI,RO,BRASIL,**NI,2022-07-01,21:10:00,SIM,FINALIZADA,***,NÃO,NULL,0,1,NÃO
80840,80840,80840,80840,80840,INCIDENTE,-3.038888889,-60.04611111,MANAUS,AM,BRASIL,SBEG,2022-07-01,1:58:00,SIM,FINALIZADA,***,NÃO,NULL,0,1,NÃO
80832,80832,80832,80832,80832,INCIDENTE,-3.038888889,-60.04611111,MANAUS,AM,BRASIL,SBEG,2022-06-30,20:29:00,SIM,FINALIZADA,***,NÃO,NULL,0,1,NÃO
80833,80833,80833,80833,80833,INCIDENTE,-3.038888889,-60.04611111,MANAUS,AM,BRASIL,SBEG,2022-06-29,0:37:00,SIM,FINALIZADA,***,NÃO,NULL,0,1,NÃO
80844,80844,80844,80844,80844,INCIDENTE,-22.85916667,-47.10805556,CAMPINAS,SP,BRASIL,SDAM,2022-06-26,13:45:00,SIM,FINALIZADA,***,NÃO,NULL,0,1,NÃO
80818,80818,80818,80818,80818,ACIDENTE,-23.69803,-47.55695,SALTO DE PIRAPORA,SP,BRASIL,***,2022-06-25,15:00:00,SIM,ATIVA,A-079/CENIPA/2022,NÃO,NULL,0,1,NÃO
80820,80820,80820,80820,80820,ACIDENTE,-23.350833,-51.493056,ARAPONGAS,PR,BRASIL,SSOG,2022-06-25,19:00:00,SIM,ATIVA,A-080/CENIPA/2022,NÃO,NULL,0,1,SIM
80821,80821,80821,80821,80821,INCIDENTE,-15.87111111,-47.91861111,BRASÍLIA,DF,BRASIL,SBGR,2022-06-25,14:32:00,SIM,FINALIZADA,***,NÃO,NULL,0,1,NÃO
80819,80819,80819,80819,80819,INCIDENTE,-16.632426,-49.22036,GOIÂNIA,GO,BRASIL,SBGO,2022-06-24,14:44:00,SIM,FINALIZADA,***,NÃO,NULL,0,1,NÃO
80827,80827,80827,80827,80827,INCIDENTE GRAVE,-25.233333,-49.95,PONTA GROSSA,PR,BRASIL,***,2022-06-24,20:30:00,SIM,FINALIZADA,***,NÃO,NULL,0,1,NÃO
80829,80829,80829,80829,80829,INCIDENTE,-8.126388889,-34.92277778,RECIFE,PE,BRASIL,SBRF,2022-06-24,14:38:00,SIM,FINALIZADA,***,NÃO,NULL,0,1,NÃO
80831,80831,80831,80831,80831,INCIDENTE,-19.62444444,-43.97194444,CONFINS,MG,BRASIL,SBCF,2022-06-24,16:06:00,SIM,FINALIZADA,***,NÃO,NULL,0,1,NÃO
80814,80814,80814,80814,80814,INCIDENTE,-8.71361,-63.90277,PORTO VELHO,RO,BRASIL,SBPV,2022-06-23,12:06:00,SIM,FINALIZADA,***,NÃO,NULL,0,1,NÃO
80817,80817,80817,80817,80817,INCIDENTE,-20.816111,-49.404722,SÃO JOSÉ DO RIO PRETO,SP,BRASIL,SBSR,2022-06-23,22:59:00,SIM,FINALIZADA,***,NÃO,NULL,0,1,NÃO
80828,80828,80828,80828,80828,INCIDENTE,-18.88361111,-48.22527778,UBERLÂNDIA,MG,BRASIL,SBUL,2022-06-23,20:25:00,SIM,FINALIZADA,***,NÃO,NULL,0,1,NÃO
80816,80816,80816,80816,80816,ACIDENTE,-1.31271,-48.33227,BENEVIDES,PA,BRASIL,***,2022-06-22,16:15:00,SIM,ATIVA,A-078/CENIPA/2022,NÃO,NULL,0,1,NÃO
80811,80811,80811,80811,80811,INCIDENTE,-23.5066,-46.6338,SÃO PAULO,SP,BRASIL,SBMT,2022-06-21,19:00:00,SIM,FINALIZADA,***,NÃO,NULL,0,1,NÃO
80815,80815,80815,80815,80815,INCIDENTE,2.84138,-60.69222,BOA VISTA,RR,BRASIL,SBBV,2022-06-21,5:15:00,SIM,FINALIZADA,***,NÃO,NULL,0,1,NÃO
80825,80825,80825,80825,80825,INCIDENTE,-23.00694444,-47.13444444,CAMPINAS,SP,BRASIL,SBKP,2022-06-21,12:12:00,SIM,FINALIZADA,***,NÃO,NULL,0,1,NÃO
80807,80807,80807,80807,80807,INCIDENTE,-4.666667,-65.390556,COARI,AM,BRASIL,***,2022-06-20,19:02:00,SIM,FINALIZADA,***,NÃO,NULL,0,1,NÃO
80812,80812,80812,80812,80812,INCIDENTE,-2.42472,-54.78583,SANTARÉM,PA,BRASIL,SBSN,2022-06-20,11:25:00,SIM,FINALIZADA,***,NÃO,NULL,0,1,NÃO
80813,80813,80813,80813,80813,ACIDENTE,-3.50726,-44.80434,ARARI,MA,BRASIL,***,2022-06-20,21:10:00,NÃO,ATIVA,A-076/CENIPA/2022,NÃO,NULL,0,1,NÃO
80822,80822,80822,80822,80822,INCIDENTE,-23.00694444,-47.13444444,CAMPINAS,SP,BRASIL,SBKP,2022-06-20,20:18:00,SIM,FINALIZADA,***,NÃO,NULL,0,1,NÃO
80823,80823,80823,80823,80823,ACIDENTE,21.0294,43.0797,UBÁ,MG,BRASIL,***,2022-06-20,18:45:00,NÃO,ATIVA,A-077/CENIPA/2022,NÃO,NULL,0,1,NÃO
80824,80824,80824,80824,80824,INCIDENTE,-23.00694444,-47.13444444,CAMPINAS,SP,BRASIL,SBKP,2022-06-20,10:09:00,SIM,FINALIZADA,***,NÃO,NULL,0,1,NÃO
80852,80852,80852,80852,80852,INCIDENTE,-25.60027778,-54.485,FOZ DO IGUAÇU,PR,BRASIL,SBFI,2022-06-20,17:02:00,SIM,FINALIZADA,***,NÃO,NULL,0,1,NÃO
80802,80802,80802,80802,80802,INCIDENTE,-23.2288,-45.8711,SÃO JOSÉ DOS CAMPOS,SP,BRASIL,SBSJ,2022-06-19,16:15:00,SIM,FINALIZADA,***,NÃO,NULL,0,1,NÃO
80806,80806,80806,80806,80806,INCIDENTE,-1.38472,-48.47888,BELÉM,PA,BRASIL,SBBE,2022-06-19,16:25:00,SIM,FINALIZADA,***,NÃO,NULL,0,1,NÃO
80809,80809,80809,80809,80809,INCIDENTE,-15.87111111,-47.91861111,BRASÍLIA,DF,BRASIL,SBBR,2022-06-19,1:17:00,SIM,FINALIZADA,***,NÃO,NULL,0,1,NÃO
80794,80794,80794,80794,80794,INCIDENTE,-16.627712,-49.345204,GOIÂNIA,GO,BRASIL,SBNV,2022-06-17,18:15:00,SIM,FINALIZADA,***,NÃO,NULL,0,1,NÃO
80797,80797,80797,80797,80797,ACIDENTE,-20.2766,-50.2138,FERNANDÓPOLIS,SP,BRASIL,SDFD,2022-06-17,13:10:00,SIM,ATIVA,A-073/CENIPA/2022,NÃO,NULL,0,1,SIM
80800,80800,80800,80800,80800,ACIDENTE,-22.1019,-48.2269,RIBEIRÃO BONITO,SP,BRASIL,SJEH,2022-06-17,17:11:00,SIM,ATIVA,A-074/CENIPA/2022,NÃO,NULL,0,1,SIM
80803,80803,80803,80803,80803,ACIDENTE,-1.25333,-47.66138,SÃO FRANCISCO DO PARÁ,PA,BRASIL,***,2022-06-17,12:00:00,SIM,ATIVA,A-075/CENIPA/2022,NÃO,NULL,0,1,NÃO
80793,80793,80793,80793,80793,INCIDENTE,-23.5069,-46.6341,SÃO PAULO,SP,BRASIL,SBMT,2022-06-16,19:22:00,SIM,FINALIZADA,***,NÃO,NULL,0,1,NÃO
80799,80799,80799,80799,80799,ACIDENTE,-11.885,-55.586111,SINOP,MT,BRASIL,SBSI,2022-06-16,15:55:00,SIM,ATIVA,A-072/CENIPA/2022,NÃO,NULL,0,1,SIM
80835,80835,80835,80835,80835,ACIDENTE,-19.020715,-48.32326,UBERLÂNDIA,MG,BRASIL,***,2022-06-16,20:21:00,SIM,FINALIZADA,***,NÃO,NULL,0,1,NÃO
80795,80795,80795,80795,80795,ACIDENTE,-5.31388,-57.65916,ITAITUBA,PA,BRASIL,***,2022-06-15,15:30:00,NÃO,ATIVA,A-071/CENIPA/2022,NÃO,NULL,0,1,NÃO
80810,80810,80810,80810,80810,INCIDENTE,-25.53166667,-49.17611111,CURITIBA,PR,BRASIL,SBCT,2022-06-15,21:25:00,SIM,FINALIZADA,***,NÃO,NULL,0,1,NÃO
80796,80796,80796,80796,80796,INCIDENTE,-15.871111,-47.918611,BRASÍLIA,DF,BRASIL,SBBR,2022-06-14,19:10:00,SIM,FINALIZADA,***,NÃO,NULL,0,1,NÃO
80848,80848,80848,80848,80848,ACIDENTE,-19.3272,-41.2575,RESPLENDOR,MG,BRASIL,***,2022-06-14,18:00:00,SIM,FINALIZADA,***,NÃO,NULL,0,1,NÃO
80788,80788,80788,80788,80788,INCIDENTE,-3.072778,-60.021111,MANAUS,AM,BRASIL,SWFN,2022-06-13,15:35:00,SIM,FINALIZADA,***,NÃO,NULL,0,1,NÃO
80789,80789,80789,80789,80789,INCIDENTE GRAVE,-7.89555,-35.16055,PAUDALHO,PE,BRASIL,***,2022-06-13,13:10:00,SIM,FINALIZADA,A DEFINIR,NÃO,NULL,0,1,NÃO
80804,80804,80804,80804,80804,INCIDENTE,-15.87111111,-47.91861111,BRASÍLIA,DF,BRASIL,SBBR,2022-06-13,10:50:00,SIM,FINALIZADA,***,NÃO,NULL,0,1,NÃO
80808,80808,80808,80808,80808,INCIDENTE,-30.187003,-51.181266,PORTO ALEGRE,RS,BRASIL,SSBN,2022-06-13,19:30:00,SIM,FINALIZADA,***,NÃO,NULL,0,1,NÃO
80805,80805,80805,80805,80805,INCIDENTE,-15.65,-56.1175,CUIABÁ,MT,BRASIL,SBCY,2022-06-12,23:00:00,SIM,FINALIZADA,***,NÃO,NULL,0,1,NÃO
80785,80785,80785,80785,80785,INCIDENTE GRAVE,-21.747222,-48.855833,IBITINGA,SP,BRASIL,SDIG,2022-06-11,11:00:00,SIM,FINALIZADA,***,NÃO,NULL,0,1,SIM
80783,80783,80783,80783,80783,INCIDENTE,-23.506667,-46.633889,SÃO PAULO,SP,BRASIL,SBMT,2022-06-10,14:42:00,SIM,FINALIZADA,***,NÃO,NULL,0,1,NÃO
80784,80784,80784,80784,80784,INCIDENTE,-23.506667,-46.633889,SÃO PAULO,SP,BRASIL,SBMT,2022-06-10,18:08:00,SIM,FINALIZADA,***,NÃO,NULL,0,1,NÃO
80790,80790,80790,80790,80790,INCIDENTE,-19.62444444,-43.97194444,CONFINS,MG,BRASIL,SBCF,2022-06-10,18:45:00,SIM,FINALIZADA,***,NÃO,NULL,0,1,NÃO
80781,80781,80781,80781,80781,ACIDENTE,-2.38777,-44.23111,SÃO JOSÉ DE RIBAMAR,MA,BRASIL,***,2022-06-09,20:00:00,SIM,ATIVA,A-070/CENIPA/2022,NÃO,NULL,0,1,NÃO
80779,80779,80779,80779,80779,INCIDENTE,-8.061388889,-38.32861111,SERRA TALHADA,PE,BRASIL,SNHS,2022-06-08,13:55:00,SIM,FINALIZADA,***,NÃO,NULL,0,1,NÃO
80791,80791,80791,80791,80791,INCIDENTE,-15.879299,-47.918843,BRASÍLIA,DF,BRASIL,SBBR,2022-06-08,15:25:00,SIM,FINALIZADA,***,NÃO,NULL,0,1,NÃO
80776,80776,80776,80776,80776,INCIDENTE,-23.626111,-73.984,SÃO PAULO,SP,BRASIL,SBSP,2022-06-07,18:45:00,SIM,FINALIZADA,***,NÃO,NULL,0,1,NÃO
80777,80777,80777,80777,80777,INCIDENTE GRAVE,-20.967222,-45.801944,ILICÍNEA,MG,BRASIL,***,2022-06-07,12:45:00,SIM,FINALIZADA,***,NÃO,NULL,0,1,NÃO
80778,80778,80778,80778,80778,INCIDENTE,-16.58805556,-54.72166667,RONDONÓPOLIS,MT,BRASIL,SBRD,2022-06-07,19:05:00,SIM,FINALIZADA,***,NÃO,NULL,0,1,NÃO
80771,80771,80771,80771,80771,INCIDENTE,-7.148333333,-34.95027778,JOÃO PESSOA,PB,BRASIL,SBJP,2022-06-06,15:35:00,SIM,FINALIZADA,***,NÃO,NULL,0,1,NÃO
80782,80782,80782,80782,80782,INCIDENTE,-22.81,-43.25055556,RIO DE JANEIRO,RJ,BRASIL,SBGL,2022-06-06,9:24:00,SIM,FINALIZADA,***,NÃO,NULL,0,1,NÃO
80786,80786,80786,80786,80786,INCIDENTE,-29.99388889,-51.17722222,PORTO ALEGRE,RS,BRASIL,SBPA,2022-06-06,2:18:00,SIM,FINALIZADA,***,NÃO,NULL,0,1,NÃO
80772,80772,80772,80772,80772,ACIDENTE,-6,,,,,,,,,,,,,,,
80766,80766,80766,80766,80766,INCIDENTE,-3.036056,-60.063111,MANAUS,AM,BRASIL,SBEG,2022-06-03,9:00:00,SIM,FINALIZADA,***,NÃO,NULL,0,1,SIM
80774,80774,80774,80774,80774,INCIDENTE,-15.65,-56.1175,CUIABÁ,MT,BRASIL,SBCY,2022-06-03,20:33:00,SIM,FINALIZADA,***,NÃO,NULL,0,1,NÃO
80849,80849,80849,80849,80849,INCIDENTE,-28.675278,-49.060278,JAGUARUNA,SC,BRASIL,SBJA,2022-06-03,15:40:00,SIM,FINALIZADA,***,NÃO,NULL,0,1,NÃO
80767,80767,80767,80767,80767,INCIDENTE,-23.00694444,-47.13444444,CAMPINAS,SP,BRASIL,SBKP,2022-06-02,21:23:00,SIM,FINALIZADA,***,NÃO,NULL,0,1,NÃO
80769,80769,80769,80769,80769,INCIDENTE,-22.81,-43.25055556,RIO DE JANEIRO,RJ,BRASIL,SBGL,2022-06-01,18:25:00,SIM,FINALIZADA,***,NÃO,NULL,0,1,NÃO
80759,80759,80759,80759,80759,INCIDENTE,-8.126388889,-34.92277778,RECIFE,PE,BRASIL,SBRF,2022-05-31,6:20:00,SIM,FINALIZADA,***,NÃO,NULL,0,1,NÃO
80754,80754,80754,80754,80754,INCIDENTE,0.17555,-63.6,SANTA ISABEL DO RIO NEGRO,AM,BRASIL,**NI,2022-05-30,18:00:00,SIM,FINALIZADA,A DEFINIR,NÃO,NULL,0,1,NÃO
80768,80768,80768,80768,80768,INCIDENTE GRAVE,-30.544977,-54.214162,SÃO GABRIEL,RS,BRASIL,***,2022-05-30,16:15:00,SIM,FINALIZADA,***,NÃO,NULL,0,1,SIM
80764,80764,80764,80764,80764,INCIDENTE,-19.62444444,-43.97194444,CONFINS,MG,BRASIL,SBCF,2022-05-29,8:59:00,SIM,FINALIZADA,***,NÃO,NULL,0,1,NÃO
80757,80757,80757,80757,80757,ACIDENTE,-23.271,-54.346,ITAQUIRAÍ,MS,BRASIL,**NI,2022-05-27,13:00:00,SIM,FINALIZADA,***,NÃO,NULL,0,1,NÃO
80851,80851,80851,80851,80851,INCIDENTE,-9.3675,-40.559444,PETROLINA,PE,BRASIL,SBPL,2022-05-27,12:57:00,SIM,FINALIZADA,***,NÃO,NULL,0,2,NÃO
80750,80750,80750,80750,80750,INCIDENTE GRAVE,-22.9875,-43.37,RIO DE JANEIRO,RJ,BRASIL,SBJR,2022-05-26,19:26:00,SIM,FINALIZADA,***,NÃO,NULL,0,1,NÃO
80753,80753,80753,80753,80753,INCIDENTE,-4.568611111,-37.80472222,ARACATI,CE,BRASIL,**NI,2022-05-26,17:52:00,SIM,FINALIZADA,***,NÃO,NULL,0,1,NÃO
80755,80755,80755,80755,80755,INCIDENTE,-21.13638889,-47.77666667,RIBEIRÃO PRETO,SP,BRASIL,SBRP,2022-05-26,17:17:00,SIM,FINALIZADA,***,NÃO,NULL,0,1,NÃO
80746,80746,80746,80746,80746,INCIDENTE,-19.62444444,-43.97194444,CONFINS,MG,BRASIL,SBCF,2022-05-25,20:20:00,SIM,FINALIZADA,***,NÃO,NULL,0,1,NÃO
80748,80748,80748,80748,80748,INCIDENTE GRAVE,-18.7425,-40.904444,BARRA DE SÃO FRANCISCO,ES,BRASIL,***,2022-05-25,19:10:00,SIM,FINALIZADA,***,NÃO,NULL,0,1,NÃO
80763,80763,80763,80763,80763,INCIDENTE GRAVE,-23.626111,-46.656389,SÃO PAULO,SP,BRASIL,SBSP,2022-05-25,18:59:00,SIM,ATIVA,IG-068/CENIPA/2022,NÃO,NULL,0,1,NÃO
80745,80745,80745,80745,80745,INCIDENTE,-26.9575,-48.731667,ITAJAÍ,SC,BRASIL,***,2022-05-24,14:30:00,SIM,FINALIZADA,***,NÃO,NULL,0,1,NÃO
80749,80749,80749,80749,80749,ACIDENTE,-3.13465,-58.64382,ITACOATIARA,AM,BRASIL,***,2022-05-24,11:50:00,SIM,ATIVA,A-067/CENIPA/2022,NÃO,NULL,0,1,NÃO
80752,80752,80752,80752,80752,INCIDENTE,-12.90861111,-38.3225,SALVADOR,BA,BRASIL,SBSV,2022-05-24,22:29:00,SIM,FINALIZADA,***,NÃO,NULL,0,1,NÃO
80738,80738,80738,80738,80738,INCIDENTE GRAVE,-22.04111111,-54.41027778,DOURADOS,MS,BRASIL,**NI,2022-05-21,12:25:00,SIM,FINALIZADA,***,NÃO,NULL,0,1,NÃO
80743,80743,80743,80743,80743,INCIDENTE,22.6342,40.0936,CAMPOS DOS GOYTACAZES,RJ,BRASIL,***,2022-05-21,10:56:00,SIM,FINALIZADA,***,NÃO,NULL,0,1,NÃO
80741,80741,80741,80741,80741,ACIDENTE,-30.057194,-51.417222,ELDORADO DO SUL,RS,BRASIL,***,2022-05-20,13:52:00,SIM,ATIVA,A-066/CENIPA/2022,NÃO,NULL,0,1,NÃO
80739,80739,80739,80739,80739,INCIDENTE GRAVE,-13.5925,-45.99138,CORRENTINA,BA,BRASIL,***,2022-05-19,9:40:00,SIM,ATIVA,IG-065/CENIPA/2022,NÃO,NULL,0,1,NÃO
80744,80744,80744,80744,80744,INCIDENTE,-19.860278,-44.681667,PARÁ DE MINAS,MG,BRASIL,***,2022-05-19,20:13:00,SIM,FINALIZADA,***,NÃO,NULL,0,1,NÃO
80747,80747,80747,80747,80747,INCIDENTE,-26.87861111,-48.65083333,NAVEGANTES,SC,BRASIL,***,2022-05-19,12:25:00,SIM,FINALIZADA,***,NÃO,NULL,0,1,NÃO
80751,80751,80751,80751,80751,INCIDENTE,-25.53166667,-49.17611111,CURITIBA,PR,BRASIL,SBCT,2022-05-19,16:13:00,SIM,FINALIZADA,***,NÃO,NULL,0,1,NÃO
80735,80735,80735,80735,80735,INCIDENTE,-18.138889,-48.060278,GOIANDIRA,GO,BRASIL,**NI,2022-05-18,20:15:00,SIM,FINALIZADA,***,NÃO,NULL,0,1,NÃO
80727,80727,80727,80727,80727,ACIDENTE,-17.07027778,-45.87444444,BRASILÂNDIA DE MINAS,MG,BRASIL,SISN,2022-05-17,10:00:00,NÃO,ATIVA,A-064/CENIPA/2022,NÃO,NULL,0,1,NÃO
80736,80736,80736,80736,80736,ACIDENTE,-23.285703,-47.64224,BOITUVA,SP,BRASIL,***,2022-05-17,10:00:00,SIM,FINALIZADA,***,NÃO,NULL,0,1,NÃO
80740,80740,80740,80740,80740,INCIDENTE,-1.384722222,-48.47888889,BELÉM,PA,BRASIL,SBBE,2022-05-17,17:52:00,SIM,FINALIZADA,***,NÃO,NULL,0,1,NÃO
80734,80734,80734,80734,80734,INCIDENTE,-23.00694444,-47.13444444,CAMPINAS,SP,BRASIL,SBKP,2022-05-16,21:03:00,SIM,FINALIZADA,***,NÃO,NULL,0,1,NÃO
80731,80731,80731,80731,80731,INCIDENTE,-23.00694444,-47.13444444,CAMPINAS,SP,BRASIL,SBKP,2022-05-15,12:15:00,SIM,FINALIZADA,***,NÃO,NULL,0,1,NÃO
80728,80728,80728,80728,80728,INCIDENTE,-23.22888889,-45.87111111,SÃO JOSÉ DOS CAMPOS,SP,BRASIL,SBSJ,2022-05-14,15:50:00,SIM,FINALIZADA,***,NÃO,NULL,0,1,NÃO
80721,80721,80721,80721,80721,INCIDENTE,-23.448056,-46.740278,SÃO PAULO,SP,BRASIL,***,2022-05-13,15:00:00,SIM,FINALIZADA,***,NÃO,NULL,0,1,NÃO
80729,80729,80729,80729,80729,INCIDENTE,-29.99472222,-51.17111111,PORTO ALEGRE,RS,BRASIL,SBPA,2022-05-12,15:15:00,SIM,FINALIZADA,***,NÃO,NULL,0,1,NÃO
80730,80730,80730,80730,80730,INCIDENTE,-23.43555556,-46.47305556,GUARULHOS,SP,BRASIL,SBGR,2022-05-12,9:10:00,SIM,FINALIZADA,***,NÃO,NULL,0,1,NÃO
80732,80732,80732,80732,80732,INCIDENTE,-23.47777778,-47.49,SOROCABA,SP,BRASIL,SDCO,2022-05-12,22:20:00,SIM,FINALIZADA,***,NÃO,NULL,0,1,NÃO
80716,80716,80716,80716,80716,INCIDENTE,-9.510833,-35.791667,MACEIÓ,AL,BRASIL,SBMO,2022-05-11,21:05:00,SIM,FINALIZADA,***,NÃO,NULL,0,1,NÃO
80718,80718,80718,80718,80718,INCIDENTE,-8.284444444,-36.01083333,CARUARU,PE,BRASIL,SNRU,2022-05-11,13:55:00,SIM,FINALIZADA,***,NÃO,NULL,0,1,NÃO
80720,80720,80720,80720,80720,ACIDENTE,-23.30942,-47.70998,BOITUVA,SP,BRASIL,***,2022-05-11,15:05:00,SIM,ATIVA,A-063/CENIPA/2022,NÃO,NULL,0,1,NÃO
80700,80700,80700,80700,80700,INCIDENTE,-2.42166,-54.78777,SANTARÉM,PA,BRASIL,SBSN,2022-05-08,17:22:00,SIM,FINALIZADA,***,NÃO,NULL,0,1,NÃO
80703,80703,80703,80703,80703,ACIDENTE,-7.591389,-72.683333,CRUZEIRO DO SUL,AC,BRASIL,***,2022-05-08,17:00:00,SIM,ATIVA,A-062/CENIPA/2022,NÃO,NULL,0,1,NÃO
80712,80712,80712,80712,80712,INCIDENTE GRAVE,-18.74944,-44.458055,CURVELO,MG,BRASIL,SNQV,2022-05-08,19:00:00,SIM,FINALIZADA,***,NÃO,NULL,0,1,SIM
80701,80701,80701,80701,80701,INCIDENTE GRAVE,-23.005,-43.40277,RIO DE JANEIRO,RJ,BRASIL,***,2022-05-07,17:20:00,SIM,FINALIZADA,***,NÃO,NULL,0,1,NÃO
80713,80713,80713,80713,80713,INCIDENTE,-23.43555556,-46.47305556,GUARULHOS,SP,BRASIL,SBGR,2022-05-07,20:28:00,SIM,FINALIZADA,***,NÃO,NULL,0,1,NÃO
80714,80714,80714,80714,80714,INCIDENTE,-23.43555556,-46.47305556,GUARULHOS,SP,BRASIL,SBGR,2022-05-07,11:37:00,SIM,FINALIZADA,***,NÃO,NULL,0,1,NÃO
80724,80724,80724,80724,80724,INCIDENTE,-22.755278,-47.268056,AMERICANA,SP,BRASIL,SDAI,2022-05-07,20:00:00,SIM,FINALIZADA,***,NÃO,NULL,0,1,NÃO
80715,80715,80715,80715,80715,INCIDENTE,-8.126388889,-34.92277778,RECIFE,PE,BRASIL,SBRF,2022-05-06,19:00:00,SIM,FINALIZADA,***,NÃO,NULL,0,1,NÃO
80726,80726,80726,80726,80726,INCIDENTE,-27.63416667,-50.35833333,CORREIA PINTO,SC,BRASIL,SNCP,2022-05-06,13:30:00,SIM,FINALIZADA,***,NÃO,NULL,0,1,NÃO
80705,80705,80705,80705,80705,INCIDENTE,-19.85194444,-43.95055556,BELO HORIZONTE,MG,BRASIL,SBBH,2022-05-05,3:30:00,SIM,FINALIZADA,***,NÃO,NULL,0,1,NÃO
80704,80704,80704,80704,80704,INCIDENTE,-15.731515,-47.876343,BRASÍLIA,DF,BRASIL,***,2022-05-04,11:10:00,SIM,FINALIZADA,***,NÃO,NULL,0,1,NÃO
80702,80702,80702,80702,80702,ACIDENTE,-14.300833,-47.457222,ALTO PARAÍSO DE GOIÁS,GO,BRASIL,***,2022-05-03,20:15:00,SIM,ATIVA,A-061/CENIPA/2022,NÃO,NULL,0,1,NÃO
80690,80690,80690,80690,80690,INCIDENTE,-3.380277778,-64.72527778,TEFÉ,AM,BRASIL,SBTF,2022-05-02,13:20:00,SIM,FINALIZADA,***,NÃO,NULL,0,1,NÃO
80695,80695,80695,80695,80695,INCIDENTE,-25.53166667,-49.17611111,CURITIBA,PR,BRASIL,SBCT,2022-05-02,12:10:00,SIM,FINALIZADA,***,NÃO,NULL,0,1,NÃO
80696,80696,80696,80696,80696,INCIDENTE,-8.126388889,-34.92277778,RECIFE,PE,BRASIL,SBRF,2022-05-02,19:06:00,SIM,FINALIZADA,***,NÃO,NULL,0,1,NÃO
80685,80685,80685,80685,80685,ACIDENTE,-23.56638,-46.06944,BIRITIBA-MIRIM,SP,BRASIL,SDIH,2022-05-01,14:00:00,SIM,ATIVA,A-060/CENIPA/2022,NÃO,NULL,0,1,SIM
80711,80711,80711,80711,80711,INCIDENTE,-23,,,,,,,,,,,,,,,
80686,80686,80686,80686,80686,INCIDENTE GRAVE,-20.7513,-51.6802,TRÊS LAGOAS,MS,BRASIL,SBTG,2022-04-30,21:08:00,SIM,FINALIZADA,***,NÃO,NULL,0,1,SIM
80688,80688,80688,80688,80688,ACIDENTE,-24.165278,-53.392222,ALTO PIQUIRI,PR,BRASIL,***,2022-04-30,10:00:00,SIM,ATIVA,A-058/CENIPA/2022,NÃO,NULL,0,1,SIM
80682,80682,80682,80682,80682,INCIDENTE,-40.3333,-20.4227,VILA VELHA,ES,BRASIL,SIVU,2022-04-29,13:30:00,SIM,FINALIZADA,***,NÃO,NULL,0,1,NÃO
80687,80687,80687,80687,80687,INCIDENTE,-16.6325,-49.22111111,GOIÂNIA,GO,BRASIL,SBGO,2022-04-29,17:25:00,SIM,FINALIZADA,***,NÃO,NULL,0,1,NÃO
80689,80689,80689,80689,80689,INCIDENTE,-23.00694444,-47.13444444,CAMPINAS,SP,BRASIL,SBKP,2022-04-29,0:30:00,SIM,ATIVA,I-059/CENIPA/2022,NÃO,NULL,0,2,NÃO
80691,80691,80691,80691,80691,ACIDENTE,-9.55666667,-57.93444444,NOVA BANDEIRANTES,MT,BRASIL,***,2022-04-29,19:30:00,SIM,ATIVA,A-057/CENIPA/2022,NÃO,NULL,0,1,NÃO
80742,80742,80742,80742,80742,INCIDENTE,-22.81,-43.25055556,RIO DE JANEIRO,RJ,BRASIL,SBGL,2022-04-27,11:48:00,SIM,FINALIZADA,***,NÃO,NULL,0,2,NÃO
80693,80693,80693,80693,80693,INCIDENTE GRAVE,-26.064684,-48.86026,GARUVA,SC,BRASIL,***,2022-04-26,13:30:00,SIM,FINALIZADA,***,NÃO,NULL,0,1,NÃO
80684,80684,80684,80684,80684,INCIDENTE,-25.53166667,-49.17611111,CURITIBA,PR,BRASIL,SBCT,2022-04-25,15:57:00,SIM,FINALIZADA,***,NÃO,NULL,0,1,NÃO
80675,80675,80675,80675,80675,INCIDENTE,-23.816667,-50.925833,TAMARANA,PR,BRASIL,***,2022-04-24,19:26:00,SIM,FINALIZADA,***,NÃO,NULL,0,1,NÃO
80669,80669,80669,80669,80669,INCIDENTE,-18.88361,-48.22527,UBERLÂNDIA,MG,BRASIL,SBUL,2022-04-23,15:50:00,SIM,FINALIZADA,***,NÃO,NULL,0,1,NÃO
80665,80665,80665,80665,80665,ACIDENTE,DESCONHECIDA,DESCONHECIDA,NÃO IDENTIFICADA,***,BRASIL,**NI,2022-04-22,20:00:00,NÃO,FINALIZADA,A-056/CENIPA/2022,NÃO,NULL,0,1,NÃO
80666,80666,80666,80666,80666,INCIDENTE GRAVE,-22.9875,-43.37,RIO DE JANEIRO,RJ,BRASIL,SBJR,2022-04-22,15:37:00,SIM,FINALIZADA,***,NÃO,NULL,0,1,SIM
80667,80667,80667,80667,80667,INCIDENTE,-20.39083,-43.85111,OURO PRETO,MG,BRASIL,***,2022-04-22,15:20:00,SIM,FINALIZADA,***,NÃO,NULL,0,1,NÃO
80671,80671,80671,80671,80671,INCIDENTE GRAVE,2.726944,-62.950556,IRACEMA,RR,BRASIL,SWMV,2022-04-21,20:00:00,SIM,ATIVA,IG-055/CENIPA/2022,NÃO,NULL,0,1,SIM
80672,80672,80672,80672,80672,ACIDENTE,-15.020697,-54.064769,PRIMAVERA DO LESTE,MT,BRASIL,***,2022-04-21,11:10:00,SIM,ATIVA,A-054/CENIPA/2022,NÃO,NULL,0,1,SIM
80676,80676,80676,80676,80676,INCIDENTE GRAVE,-23.330278,-51.136667,LONDRINA,PR,BRASIL,SBLO,2022-04-19,11:50:00,NÃO,ATIVA,IG-053/CENIPA/2022,NÃO,NULL,0,1,NÃO
80657,80657,80657,80657,80657,ACIDENTE,-15.59525,-47.095667,CABECEIRAS,GO,BRASIL,***,2022-04-18,12:25:00,SIM,ATIVA,A-052/CENIPA/2022,NÃO,NULL,0,1,NÃO
80659,80659,80659,80659,80659,INCIDENTE,-23.105,-50.370278,BANDEIRANTES,PR,BRASIL,***,2022-04-18,15:20:00,SIM,FINALIZADA,***,NÃO,NULL,0,1,NÃO
80661,80661,80661,80661,80661,INCIDENTE,-18.88361111,-48.22527778,UBERLÂNDIA,MG,BRASIL,SBUL,2022-04-18,16:50:00,SIM,FINALIZADA,***,NÃO,NULL,0,1,NÃO
80662,80662,80662,80662,80662,INCIDENTE GRAVE,-25.403333,-49.233611,CURITIBA,PR,BRASIL,SBBI,2022-04-18,17:20:00,SIM,ATIVA,IG-051/CENIPA/2022,NÃO,NULL,0,1,SIM
80651,80651,80651,80651,80651,ACIDENTE,-6.641289387,-48.66949381,PIÇARRA,PA,BRASIL,***,2022-04-17,16:00:00,SIM,ATIVA,A-050/CENIPA/2022,NÃO,NULL,0,1,SIM
80655,80655,80655,80655,80655,ACIDENTE,-4.32444,-56.08806,ITAITUBA,PA,BRASIL,**NI,2022-04-17,11:30:00,SIM,FINALIZADA,***,NÃO,NULL,0,1,NÃO
80656,80656,80656,80656,80656,ACIDENTE,-13.90611,-38.94,MARAÚ,BA,BRASIL,SIRI,2022-04-17,11:55:00,SIM,ATIVA,A-049/CENIPA/2022,NÃO,NULL,0,1,SIM
80648,80648,80648,80648,80648,INCIDENTE GRAVE,-12.16833,-43.2225,IBOTIRAMA,BA,BRASIL,SNIT,2022-04-15,14:25:00,SIM,ATIVA,IG-048/CENIPA/2022,NÃO,NULL,0,1,SIM
80658,80658,80658,80658,80658,INCIDENTE,-23.43555556,-46.47305556,SÃO PAULO,SP,BRASIL,SBGR,2022-04-15,11:00:00,SIM,FINALIZADA,***,NÃO,NULL,0,1,NÃO
80678,80678,80678,80678,80678,INCIDENTE,-8.126388889,-34.92277778,RECIFE,PE,BRASIL,SBRF,2022-04-15,0:00:00,SIM,FINALIZADA,***,NÃO,NULL,0,1,NÃO
80647,80647,80647,80647,80647,INCIDENTE GRAVE,-9.868333,-67.898056,RIO BRANCO,AC,BRASIL,SBRB,2022-04-14,17:45:00,SIM,ATIVA,IG-047/CENIPA/2022,NÃO,NULL,0,1,NÃO
80653,80653,80653,80653,80653,ACIDENTE,-17.479167,-52.49444,MINEIROS,GO,BRASIL,***,2022-04-14,10:30:00,SIM,ATIVA,A-046/CENIPA/2022,NÃO,NULL,0,1,NÃO
80663,80663,80663,80663,80663,INCIDENTE,-23.00694444,-47.13444444,CAMPINAS,SP,BRASIL,SBKP,2022-04-13,20:48:00,SIM,FINALIZADA,***,NÃO,NULL,0,1,NÃO
80670,80670,80670,80670,80670,INCIDENTE,-10.18361111,-59.45138889,ARIPUANÃ,MT,BRASIL,**NI,2022-04-13,15:20:00,SIM,FINALIZADA,***,NÃO,NULL,0,1,NÃO
80680,80680,80680,80680,80680,INCIDENTE,-8.126388889,-34.92277778,GUARULHOS,SP,BRASIL,SBGR,2022-04-13,23:38:00,SIM,FINALIZADA,***,NÃO,NULL,0,1,NÃO
80683,80683,80683,80683,80683,INCIDENTE,-22.91,-43.1625,RIO DE JANEIRO,RJ,BRASIL,SBRJ,2022-04-13,23:46:00,SIM,FINALIZADA,***,NÃO,NULL,0,1,NÃO
80649,80649,80649,80649,80649,INCIDENTE,-22.9875,-43.37,RIO DE JANEIRO,RJ,BRASIL,***,2022-04-12,14:10:00,SIM,FINALIZADA,***,NÃO,NULL,0,1,NÃO
80642,80642,80642,80642,80642,ACIDENTE,-7,,,,,,,,,,,,,,,
80646,80646,80646,80646,80646,ACIDENTE,-19.89083,-44.05777,CONTAGEM,MG,BRASIL,***,2022-04-11,11:35:00,SIM,ATIVA,A-044/CENIPA/2022,NÃO,NULL,0,1,NÃO
80636,80636,80636,80636,80636,INCIDENTE GRAVE,-23.090278,-52.488611,PARANAVAÍ,PR,BRASIL,SSPI,2022-04-10,13:30:00,SIM,FINALIZADA,***,NÃO,NULL,0,1,NÃO
80660,80660,80660,80660,80660,INCIDENTE,-22.81,-43.25055556,RIO DE JANEIRO,RJ,BRASIL,SBGL,2022-04-10,22:08:00,SIM,FINALIZADA,***,NÃO,NULL,0,1,NÃO
80644,80644,80644,80644,80644,INCIDENTE,-22.81,-43.25055556,RIO DE JANEIRO,RJ,BRASIL,SBGL,2022-04-09,10:00:00,SIM,FINALIZADA,***,NÃO,NULL,0,1,NÃO
80650,80650,80650,80650,80650,INCIDENTE,-3.041111111,-60.05055556,MANAUS,AM,BRASIL,SBEG,2022-04-09,18:20:00,SIM,FINALIZADA,***,NÃO,NULL,0,1,NÃO
80634,80634,80634,80634,80634,INCIDENTE,-4.8713,-66.8975,CARAUARI,AM,BRASIL,SWCA,2022-04-08,16:05:00,SIM,FINALIZADA,***,NÃO,NULL,0,1,NÃO
80640,80640,80640,80640,80640,INCIDENTE,-12.90861111,-38.3225,SALVADOR,BA,BRASIL,SBSV,2022-04-08,22:31:00,SIM,FINALIZADA,***,NÃO,NULL,0,1,NÃO
80677,80677,80677,80677,80677,INCIDENTE,-23.00694444,-47.13444444,CAMPINAS,SP,BRASIL,SBKP,2022-04-08,18:39:00,SIM,FINALIZADA,***,NÃO,NULL,0,1,NÃO
80641,80641,80641,80641,80641,INCIDENTE,-23.00694444,-47.13444444,CAMPINAS,SP,BRASIL,SBKP,2022-04-07,18:45:00,SIM,FINALIZADA,***,NÃO,NULL,0,1,NÃO
80633,80633,80633,80633,80633,INCIDENTE GRAVE,-14.483998,-58.356394,TANGARÁ DA SERRA,MT,BRASIL,***,2022-04-06,10:15:00,SIM,ATIVA,IG-043/CENIPA/2022,NÃO,NULL,0,1,SIM
80635,80635,80635,80635,80635,ACIDENTE,-11.250704,-60.843379,ESPIGÃO D'OESTE,RO,BRASIL,***,2022-04-06,15:00:00,SIM,ATIVA,A-042/CENIPA/2022,NÃO,NULL,0,1,NÃO
80630,80630,80630,80630,80630,INCIDENTE GRAVE,-22.91,-43.1625,RIO DE JANEIRO,RJ,BRASIL,SBRJ,2022-04-05,22:10:00,SIM,ATIVA,IG-041/CENIPA/2022,NÃO,NULL,0,1,NÃO
80643,80643,80643,80643,80643,INCIDENTE,-25.53166667,-49.17611111,RIO DE JANEIRO,RJ,BRASIL,SBRJ,2022-04-05,22:10:00,SIM,FINALIZADA,NULL,NÃO,NULL,0,1,NÃO
80631,80631,80631,80631,80631,INCIDENTE,***,***,NÃO IDENTIFICADA,***,BRASIL,***,2022-04-04,11:15:00,SIM,FINALIZADA,***,NÃO,NULL,0,1,NÃO
80632,80632,80632,80632,80632,INCIDENTE,-22.575,-42.12388889,ARARUAMA,RJ,BRASIL,***,2022-04-03,13:25:00,SIM,FINALIZADA,***,NÃO,NULL,0,1,NÃO
80723,80723,80723,80723,80723,INCIDENTE,-10.870556,-61.846667,JI-PARANÁ,RO,BRASIL,SBJI,2022-04-02,20:40:00,SIM,FINALIZADA,***,NÃO,NULL,0,1,NÃO
80638,80638,80638,80638,80638,INCIDENTE,-19.62444444,-43.97194444,CONFINS,MG,BRASIL,SBCF,2022-04-01,18:08:00,SIM,FINALIZADA,***,NÃO,NULL,0,1,NÃO
80622,80622,80622,80622,80622,INCIDENTE,-23.509047,-46.638314,SÃO PAULO,SP,BRASIL,SBMT,2022-03-31,11:42:00,SIM,FINALIZADA,***,NÃO,NULL,0,1,NÃO
80627,80627,80627,80627,80627,ACIDENTE,-15.513701,-54.28138,PRIMAVERA DO LESTE,MT,BRASIL,***,2022-03-31,23:05:00,SIM,ATIVA,A DEFINIR,NÃO,NULL,0,1,NÃO
80629,80629,80629,80629,80629,INCIDENTE,-27.67027778,-48.5525,FLORIANÓPOLIS,SC,BRASIL,SBFL,2022-03-31,8:31:00,SIM,FINALIZADA,***,NÃO,NULL,0,1,NÃO
80620,80620,80620,80620,80620,INCIDENTE GRAVE,-13.555556,-50.533611,NOVA CRIXÁS,GO,BRASIL,***,2022-03-30,18:10:00,SIM,FINALIZADA,***,NÃO,NULL,0,1,NÃO
80639,80639,80639,80639,80639,INCIDENTE,-8.126388889,-34.92277778,RECIFE,PE,BRASIL,SBRF,2022-03-29,22:04:00,SIM,FINALIZADA,***,NÃO,NULL,0,1,NÃO
80621,80621,80621,80621,80621,INCIDENTE,-22.181944,-50.865833,RANCHARIA,SP,BRASIL,SDRC,2022-03-28,17:00:00,SIM,FINALIZADA,***,NÃO,NULL,0,1,NÃO
80628,80628,80628,80628,80628,INCIDENTE,-23.43194444,-46.46944444,GUARULHOS,SP,BRASIL,SBGR,2022-03-28,11:30:00,SIM,FINALIZADA,***,NÃO,NULL,0,1,NÃO
80609,80609,80609,80609,80609,INCIDENTE GRAVE,-15.849181,-48.982638,PIRENÓPOLIS,GO,BRASIL,SNMH,2022-03-27,13:50:00,SIM,FINALIZADA,***,NÃO,NULL,0,1,SIM
80623,80623,80623,80623,80623,ACIDENTE,-20.106944,-50.374167,GUARANI D'OESTE,SP,BRASIL,***,2022-03-27,13:00:00,SIM,ATIVA,A DEFINIR,NÃO,NULL,0,1,SIM
80624,80624,80624,80624,80624,INCIDENTE,-8.126388889,-34.92277778,RECIFE,PE,BRASIL,SBRF,2022-03-27,12:10:00,SIM,FINALIZADA,***,NÃO,NULL,0,1,NÃO
80626,80626,80626,80626,80626,INCIDENTE,-23.00694444,-47.13444444,CAMPINAS,SP,BRASIL,SBKP,2022-03-27,2:46:00,SIM,FINALIZADA,***,NÃO,NULL,0,1,NÃO
80608,80608,80608,80608,80608,INCIDENTE GRAVE,-4.718056,-46.296667,SANTA LUZIA,MA,BRASIL,***,2022-03-26,20:15:00,SIM,FINALIZADA,***,NÃO,NULL,0,1,NÃO
80612,80612,80612,80612,80612,INCIDENTE,-14.883611,-48.225278,UBERLÂNDIA,MG,BRASIL,SBUL,2022-03-26,13:57:00,SIM,FINALIZADA,***,NÃO,NULL,0,1,NÃO
80619,80619,80619,80619,80619,INCIDENTE,-23.419324,-45.037828,UBATUBA,SP,BRASIL,***,2022-03-26,17:50:00,SIM,FINALIZADA,***,NÃO,NULL,0,1,NÃO
80625,80625,80625,80625,80625,INCIDENTE,-22.91,-43.1625,RIO DE JANEIRO,RJ,BRASIL,SBRJ,2022-03-26,21:21:00,SIM,FINALIZADA,***,NÃO,NULL,0,1,NÃO
80616,80616,80616,80616,80616,INCIDENTE,-23.506667,-46.633889,SÃO PAULO,SP,BRASIL,SBMT,2022-03-25,15:36:00,SIM,FINALIZADA,***,NÃO,NULL,0,1,SIM
80617,80617,80617,80617,80617,INCIDENTE,-15.87111111,-47.91861111,BRASÍLIA,DF,BRASIL,SBBR,2022-03-25,19:30:00,SIM,FINALIZADA,***,NÃO,NULL,0,1,NÃO
80605,80605,80605,80605,80605,INCIDENTE,-23.506667,-46.633889,SÃO PAULO,SP,BRASIL,SBMT,2022-03-24,10:20:00,SIM,FINALIZADA,***,NÃO,NULL,0,1,NÃO
80610,80610,80610,80610,80610,ACIDENTE,-12.204167,-56.237778,IPIRANGA DO NORTE,MT,BRASIL,***,2022-03-24,19:30:00,SIM,ATIVA,A-038/CENIPA/2022,NÃO,NULL,0,1,NÃO
80710,80710,80710,80710,80710,INCIDENTE GRAVE,-15.3122,-46.533183,BURITIS,MG,BRASIL,***,2022-03-24,18:00:00,SIM,FINALIZADA,***,NÃO,NULL,0,1,NÃO
80606,80606,80606,80606,80606,ACIDENTE,-7,,,,,,,,,,,,,,,
80615,80615,80615,80615,80615,INCIDENTE,-7.148333333,-34.95027778,JOÃO PESSOA,PB,BRASIL,SBJP,2022-03-23,9:43:00,SIM,FINALIZADA,***,NÃO,NULL,0,1,NÃO
80618,80618,80618,80618,80618,INCIDENTE,-25.53166667,-49.17611111,CURITIBA,PR,BRASIL,SBCT,2022-03-23,19:50:00,SIM,FINALIZADA,***,NÃO,NULL,0,1,NÃO
80598,80598,80598,80598,80598,INCIDENTE,-2.49638,-44.27944,SÃO LUÍS,MA,BRASIL,SWLW,2022-03-22,11:00:00,SIM,FINALIZADA,***,NÃO,NULL,0,1,NÃO
80599,80599,80599,80599,80599,INCIDENTE,-22.81,-43.25055,RIO DE JANEIRO,RJ,BRASIL,SBGL,2022-03-22,10:08:00,SIM,FINALIZADA,***,NÃO,NULL,0,1,NÃO
80613,80613,80613,80613,80613,INCIDENTE,-19.85194444,-43.95055556,BELO HORIZONTE,MG,BRASIL,SBBH,2022-03-22,15:01:00,SIM,FINALIZADA,***,NÃO,NULL,0,1,NÃO
80597,80597,80597,80597,80597,ACIDENTE,-22,,,,,,,,,,,,,,,
80596,80596,80596,80596,80596,INCIDENTE,-3.775833333,-38.53222222,FORTALEZA,CE,BRASIL,SBFZ,2022-03-20,10:50:00,SIM,FINALIZADA,***,NÃO,NULL,0,1,NÃO
80611,80611,80611,80611,80611,INCIDENTE,-15.87111111,-47.91861111,BRASÍLIA,DF,BRASIL,SBBR,2022-03-20,12:59:00,SIM,FINALIZADA,***,NÃO,NULL,0,1,NÃO
80595,80595,80595,80595,80595,ACIDENTE,-16.34694444,-45.34916667,SÃO ROMÃO,MG,BRASIL,SSOT,2022-03-19,10:56:00,SIM,ATIVA,A-035/CENIPA/2022,NÃO,NULL,0,1,NÃO
80603,80603,80603,80603,80603,INCIDENTE,-23.00694444,-47.13444444,CAMPINAS,SP,BRASIL,SBRF,2022-03-19,9:15:00,SIM,FINALIZADA,***,NÃO,NULL,0,1,NÃO
80614,80614,80614,80614,80614,INCIDENTE,-23.00694444,-47.13444444,CAMPINAS,SP,BRASIL,SBKP,2022-03-19,11:55:00,SIM,FINALIZADA,***,NÃO,NULL,0,1,NÃO
80593,80593,80593,80593,80593,ACIDENTE,-23.000278,-46.521944,BRAGANÇA PAULISTA,SP,BRASIL,SBBP,2022-03-17,21:50:00,SIM,ATIVA,A-027/CENIPA/2022,NÃO,NULL,0,1,NÃO
80589,80589,80589,80589,80589,ACIDENTE,-13,,,,,,,,,,,,,,,
80592,80592,80592,80592,80592,INCIDENTE GRAVE,-12.4825,-55.031944,FELIZ NATAL,MT,BRASIL,***,2022-03-16,21:00:00,SIM,ATIVA,IG-034/CENIPA/2022,NÃO,NULL,0,1,NÃO
80602,80602,80602,80602,80602,INCIDENTE,-23.00694444,-47.13444444,CAMPINAS,SP,BRASIL,SBKP,2022-03-16,14:40:00,SIM,FINALIZADA,***,NÃO,NULL,0,1,NÃO
80584,80584,80584,80584,80584,INCIDENTE,-16.70611111,-43.82194444,MONTES CLAROS,MG,BRASIL,SBMK,2022-03-14,14:33:00,SIM,FINALIZADA,***,NÃO,NULL,0,1,NÃO
80581,80581,80581,80581,80581,ACIDENTE,-19.198333,-45.01166,POMPÉU,MG,BRASIL,SNPO,2022-03-13,15:00:00,SIM,ATIVA,A-032/CENIPA/2022,NÃO,NULL,0,1,SIM
80594,80594,80594,80594,80594,INCIDENTE,-20.46944444,-54.67027778,CAMPO GRANDE,MS,BRASIL,SBCG,2022-03-13,0:00:00,SIM,FINALIZADA,***,NÃO,NULL,0,1,NÃO
80582,80582,80582,80582,80582,INCIDENTE,-26.878611,-48.650833,NAVEGANTES,SC,BRASIL,SBNF,2022-03-11,10:29:00,SIM,FINALIZADA,***,NÃO,NULL,0,1,NÃO
80574,80574,80574,80574,80574,INCIDENTE,-21.136389,-47.776667,RIBEIRÃO PRETO,SP,BRASIL,SBRP,2022-03-10,9:11:00,SIM,FINALIZADA,***,NÃO,NULL,0,1,NÃO
80576,80576,80576,80576,80576,INCIDENTE,-23.181667,-46.943611,JUNDIAÍ,SP,BRASIL,SBJD,2022-03-10,17:00:00,SIM,FINALIZADA,***,NÃO,NULL,0,1,NÃO
80586,80586,80586,80586,80586,INCIDENTE,-27.166667,-48.621667,PORTO BELO,SC,BRASIL,SDEN,2022-03-10,14:50:00,SIM,FINALIZADA,***,NÃO,NULL,0,1,NÃO
80588,80588,80588,80588,80588,INCIDENTE,-27.166667,-48.621667,PORTO BELO,SC,BRASIL,SDEN,2022-03-10,15:50:00,SIM,FINALIZADA,***,NÃO,NULL,0,1,NÃO
80580,80580,80580,80580,80580,INCIDENTE GRAVE,-22.98777,-43.37083,RIO DE JANEIRO,RJ,BRASIL,SBJR,2022-03-09,16:10:00,SIM,FINALIZADA,***,NÃO,NULL,0,1,NÃO
80590,80590,80590,80590,80590,INCIDENTE,-9.3675,-40.56361111,PETROLINA,PE,BRASIL,SBPL,2022-03-09,0:23:00,SIM,FINALIZADA,***,NÃO,NULL,0,1,NÃO
80587,80587,80587,80587,80587,INCIDENTE,-3.041111111,-60.05055556,MANAUS,AM,BRASIL,SBEG,2022-03-07,23:00:00,SIM,FINALIZADA,***,NÃO,NULL,0,1,NÃO
80579,80579,80579,80579,80579,INCIDENTE,-23.43555556,-46.47861111,GUARULHOS,SP,BRASIL,SBGR,2022-03-06,10:30:00,SIM,FINALIZADA,***,NÃO,NULL,0,1,NÃO
80567,80567,80567,80567,80567,ACIDENTE,-10.383917,-52.603722,SANTA CRUZ DO XINGU,MT,BRASIL,APUA,2022-03-05,15:00:00,SIM,ATIVA,A-031/CENIPA/2022,NÃO,NULL,0,1,SIM
80585,80585,80585,80585,80585,INCIDENTE,-23.00694444,-47.13444444,CAMPINAS,SP,BRASIL,SBKP,2022-03-05,2:15:00,SIM,FINALIZADA,***,NÃO,NULL,0,1,NÃO
80707,80707,80707,80707,80707,INCIDENTE,-5,,,,,,,,,,,,,,,
80563,80563,80563,80563,80563,ACIDENTE,-22.97527778,-44.30722222,ANGRA DOS REIS,RJ,BRASIL,SDAG,2022-03-02,16:30:00,SIM,ATIVA,A-030/CENIPA/2022,NÃO,NULL,0,1,SIM
80561,80561,80561,80561,80561,ACIDENTE,-24.53,-48.049,ELDORADO,SP,BRASIL,***,2022-03-01,11:05:00,SIM,ATIVA,A-029/CENIPA/2022,NÃO,NULL,0,1,NÃO
80564,80564,80564,80564,80564,INCIDENTE,-23.54,-46.61,SÃO PAULO,SP,BRASIL,SIUD,2022-02-28,14:05:00,SIM,FINALIZADA,***,NÃO,NULL,0,1,NÃO
80569,80569,80569,80569,80569,INCIDENTE,-26.878611,-48.650833,NAVEGANTES,SC,BRASIL,SBNF,2022-02-28,13:07:00,SIM,FINALIZADA,***,NÃO,NULL,0,1,NÃO
80565,80565,80565,80565,80565,ACIDENTE,-20.907103,-48.464186,BEBEDOURO,SP,BRASIL,SDBB,2022-02-27,13:00:00,SIM,ATIVA,A-028/CENIPA/2022,NÃO,NULL,0,1,NÃO
80573,80573,80573,80573,80573,INCIDENTE,-23.448889,-52.280278,GUAÍRA,PR,BRASIL,***,2022-02-27,12:10:00,SIM,FINALIZADA,***,NÃO,NULL,0,1,NÃO
80568,80568,80568,80568,80568,INCIDENTE,-23.388611,-52.1775,PRESIDENTE CASTELO BRANCO,PR,BRASIL,***,2022-02-26,20:09:00,SIM,FINALIZADA,***,NÃO,NULL,0,1,NÃO
80555,80555,80555,80555,80555,INCIDENTE GRAVE,-28.67527778,-49.06027778,JAGUARUNA,SC,BRASIL,SBJA,2022-02-24,16:27:00,SIM,FINALIZADA,***,NÃO,NULL,0,1,SIM
80556,80556,80556,80556,80556,INCIDENTE,-3.034645,-60.046486,MANAUS,AM,BRASIL,SBEG,2022-02-24,16:50:00,SIM,FINALIZADA,***,NÃO,NULL,0,1,NÃO
80558,80558,80558,80558,80558,ACIDENTE,-8.849036568,-46.80541112,BALSAS,MA,BRASIL,***,2022-02-24,13:30:00,SIM,ATIVA,A-026/CENIPA/2022,NÃO,NULL,0,1,NÃO
80554,80554,80554,80554,80554,ACIDENTE,-7.528318,-46.04666,BALSAS,MA,BRASIL,***,2022-02-23,15:00:00,SIM,ATIVA,A-025/CENIPA/2022,NÃO,NULL,0,1,NÃO
80560,80560,80560,80560,80560,INCIDENTE,-4,,,,,,,,,,,,,,,
80562,80562,80562,80562,80562,INCIDENTE,-21.40444,-54.73388,RIO BRILHANTE,MS,BRASIL,**NI,2022-02-23,16:20:00,SIM,FINALIZADA,***,NÃO,NULL,0,1,NÃO
80578,80578,80578,80578,80578,INCIDENTE,-23.00694444,-47.13444444,CAMPINAS,SP,BRASIL,SBKP,2022-02-22,23:15:00,SIM,FINALIZADA,***,NÃO,NULL,0,1,NÃO
80571,80571,80571,80571,80571,ACIDENTE,-1.906687,-60.098035,PRESIDENTE FIGUEIREDO,AM,BRASIL,***,2022-02-19,16:45:00,SIM,FINALIZADA,***,NÃO,NULL,0,1,NÃO
80572,80572,80572,80572,80572,INCIDENTE,-26.87861111,-48.65083333,NAVEGANTES,SC,BRASIL,SBNF,2022-02-19,16:20:00,SIM,FINALIZADA,***,NÃO,NULL,0,1,NÃO
80549,80549,80549,80549,80549,ACIDENTE,-21.45918,-51.598523,DRACENA,SP,BRASIL,SDDR,2022-02-18,14:30:00,SIM,ATIVA,A-024/CENIPA/2022,NÃO,NULL,0,1,NÃO
80546,80546,80546,80546,80546,INCIDENTE GRAVE,-22.34,-49.05,BAURU,SP,BRASIL,SBBU,2022-02-17,14:39:00,SIM,FINALIZADA,***,NÃO,NULL,0,1,SIM
80548,80548,80548,80548,80548,INCIDENTE GRAVE,-27.16666667,-48.62166667,PORTO BELO,SC,BRASIL,SDEN,2022-02-17,14:00:00,SIM,FINALIZADA,***,NÃO,NULL,0,1,NÃO
80547,80547,80547,80547,80547,ACIDENTE,-23.01,-46.64,BRAGANÇA PAULISTA,SP,BRASIL,SDVH,2022-02-16,14:52:00,SIM,ATIVA,A-022/CENIPA/2022,NÃO,NULL,0,1,NÃO
80550,80550,80550,80550,80550,INCIDENTE GRAVE,-8.12638889,-34.92277778,RECIFE,PE,BRASIL,SBRF,2022-02-16,2:40:00,SIM,ATIVA,IG-023/CENIPA/2022,NÃO,NULL,0,1,SIM
80557,80557,80557,80557,80557,INCIDENTE,-23.43555556,-46.47305556,GUARULHOS,SP,BRASIL,SBGR,2022-02-15,15:37:00,SIM,FINALIZADA,A DEFINIR,NÃO,NULL,0,2,NÃO
80737,80737,80737,80737,80737,INCIDENTE,-22.85916667,-47.10805556,CAMPINAS,SP,BRASIL,SDAM,2022-02-12,15:30:00,SIM,FINALIZADA,***,NÃO,NULL,0,1,NÃO
80542,80542,80542,80542,80542,INCIDENTE,-3.041111111,-60.05055556,MANAUS,AM,BRASIL,SBEG,2022-02-11,21:00:00,SIM,FINALIZADA,***,NÃO,NULL,0,1,NÃO
80540,80540,80540,80540,80540,ACIDENTE,-29.762778,-50.035833,CAPÃO DA CANOA,RS,BRASIL,SSKK,2022-02-10,13:00:00,SIM,ATIVA,A-021/CENIPA/2022,NÃO,NULL,0,1,NÃO
80537,80537,80537,80537,80537,INCIDENTE,-23.506667,-46.633889,SÃO PAULO,SP,BRASIL,SBMT,2022-02-09,12:24:00,SIM,FINALIZADA,***,NÃO,NULL,0,1,NÃO
80539,80539,80539,80539,80539,ACIDENTE,-47.46555,-19.48388,SANTA JULIANA,MG,BRASIL,***,2022-02-09,13:50:00,SIM,ATIVA,A-020/CENIPA/2022,NÃO,NULL,0,1,NÃO
80551,80551,80551,80551,80551,INCIDENTE,-22.98,-46.54,BRAGANÇA PAULISTA,SP,BRASIL,SBBP,2022-02-09,12:00:00,SIM,FINALIZADA,***,NÃO,NULL,0,1,NÃO
80536,80536,80536,80536,80536,ACIDENTE,-3.70277778,-47.76944444,ULIANÓPOLIS,PA,BRASIL,SJVX,2022-02-08,15:20:00,SIM,ATIVA,A-019/CENIPA/2022,NÃO,NULL,0,1,NÃO
80521,80521,80521,80521,80521,INCIDENTE,-12.694167,-60.097222,VILHENA,RO,BRASIL,SBVH,2022-02-06,20:18:00,SIM,FINALIZADA,***,NÃO,NULL,0,1,NÃO
80530,80530,80530,80530,80530,INCIDENTE GRAVE,-22.722222,-47.6,PIRACICABA,SP,BRASIL,***,2022-02-06,12:20:00,SIM,FINALIZADA,***,NÃO,NULL,0,1,NÃO
80520,80520,80520,80520,80520,ACIDENTE,-26.665478,-48.895254,LUIZ ALVES,SC,BRASIL,***,2022-02-05,11:40:00,SIM,ATIVA,A-018/CENIPA/2022,NÃO,NULL,0,1,NÃO
80528,80528,80528,80528,80528,ACIDENTE,-18.75161918,-52.684004,CHAPADÃO DO SUL,MS,BRASIL,SDRV,2022-02-05,16:30:00,NÃO,ATIVA,A-017/CENIPA/2022,NÃO,NULL,0,1,NÃO
80522,80522,80522,80522,80522,INCIDENTE,-23.506667°,-46.633889°,CAJAMAR,SP,BRASIL,SBMT,2022-02-04,17:30:00,SIM,FINALIZADA,***,NÃO,NULL,0,1,NÃO
80514,80514,80514,80514,80514,INCIDENTE GRAVE,-22.195556,-49.926944,MARÍLIA,SP,BRASIL,SBML,2022-02-03,12:20:00,SIM,FINALIZADA,***,NÃO,NULL,0,1,NÃO
80516,80516,80516,80516,80516,ACIDENTE,-19.124328,-50.687617,SÃO SIMÃO,GO,BRASIL,APUA,2022-02-03,13:30:00,SIM,ATIVA,A-016/CENIPA/2022,NÃO,NULL,0,1,NÃO
80507,80507,80507,80507,80507,INCIDENTE,-43.95055556,-19.85194444,BELO HORIZONTE,MG,BRASIL,SBBH,2022-02-02,13:15:00,SIM,FINALIZADA,***,NÃO,NULL,0,1,NÃO
80506,80506,80506,80506,80506,ACIDENTE,-15.854444,-47.806667,BRASÍLIA,DF,BRASIL,SSGP,2022-01-31,12:35:00,SIM,ATIVA,A-015/CENIPA/2022,NÃO,NULL,0,1,SIM
80531,80531,80531,80531,80531,INCIDENTE,-19.62444444,-43.97194444,CONFINS,MG,BRASIL,SBCF,2022-01-31,16:50:00,SIM,FINALIZADA,***,NÃO,NULL,0,1,NÃO
80533,80533,80533,80533,80533,INCIDENTE,-22.81,-43.25055556,RIO DE JANEIRO,RJ,BRASIL,SBGL,2022-01-31,10:40:00,SIM,FINALIZADA,***,NÃO,NULL,0,1,NÃO
80504,80504,80504,80504,80504,INCIDENTE,-22.202922,-41.100426,MACAÉ,RJ,BRASIL,***,2022-01-30,12:50:00,SIM,FINALIZADA,***,NÃO,NULL,0,1,NÃO
80524,80524,80524,80524,80524,INCIDENTE,-12.90861111,-38.3225,SALVADOR,BA,BRASIL,SBSV,2022-01-30,18:34:00,SIM,FINALIZADA,***,NÃO,NULL,0,1,NÃO
80512,80512,80512,80512,80512,ACIDENTE,-29.055278,-55.716111,MAÇAMBARÁ,RS,BRASIL,***,2022-01-29,9:50:00,SIM,ATIVA,A-014/CENIPA/2022,NÃO,NULL,0,1,NÃO
80529,80529,80529,80529,80529,INCIDENTE,-1.384722222,-48.47888889,BELÉM,PA,BRASIL,SBBE,2022-01-29,16:50:00,SIM,FINALIZADA,***,NÃO,NULL,0,1,NÃO
80502,80502,80502,80502,80502,INCIDENTE,-16.70472222,-49.22638889,GOIÂNIA,GO,BRASIL,***,2022-01-28,12:25:00,SIM,FINALIZADA,***,NÃO,NULL,0,1,NÃO
80503,80503,80503,80503,80503,INCIDENTE GRAVE,-23.000053,-46.633369,BRAGANÇA PAULISTA,SP,BRASIL,SDVH,2022-01-28,11:00:00,SIM,FINALIZADA,***,NÃO,NULL,0,1,SIM
80523,80523,80523,80523,80523,INCIDENTE,-23.00694444,-47.13444444,CAMPINAS,SP,BRASIL,SBKP,2022-01-27,12:00:00,SIM,FINALIZADA,***,NÃO,NULL,0,1,NÃO
80501,80501,80501,80501,80501,INCIDENTE,-23.0069,-47.1344,CAMPINAS,SP,BRASIL,SBKP,2022-01-26,21:00:00,SIM,FINALIZADA,***,NÃO,NULL,0,1,NÃO
80500,80500,80500,80500,80500,ACIDENTE,-22.238611,-47.706389,CORUMBATAÍ,SP,BRASIL,**NI,2022-01-24,10:30:00,SIM,ATIVA,A-013/CENIPA/2022,NÃO,NULL,0,1,NÃO
80496,80496,80496,80496,80496,INCIDENTE,-22.97916667,-46.5375,BRAGANÇA PAULISTA,SP,BRASIL,SBBP,2022-01-23,19:15:00,SIM,FINALIZADA,***,NÃO,NULL,0,1,NÃO
80498,80498,80498,80498,80498,INCIDENTE,-22.9875,-43.37,RIO DE JANEIRO,RJ,BRASIL,SBJR,2022-01-23,9:30:00,SIM,FINALIZADA,***,NÃO,NULL,0,1,NÃO
80490,80490,80490,80490,80490,ACIDENTE,-20.356944,-49.526389,PALESTINA,SP,BRASIL,***,2022-01-22,21:00:00,SIM,ATIVA,A-012/CENIPA/2022,NÃO,NULL,0,1,NÃO
80505,80505,80505,80505,80505,ACIDENTE,-9.35,-67.78333,BOCA DO ACRE,AM,BRASIL,SD6Y,2022-01-22,14:00:00,SIM,ATIVA,A-027/CENIPA/2022,NÃO,NULL,0,1,NÃO
80497,80497,80497,80497,80497,INCIDENTE GRAVE,-12,,,,,,,,,,,,,,,
80491,80491,80491,80491,80491,ACIDENTE,-12.105,-45.90444444,LUÍS EDUARDO MAGALHÃES,BA,BRASIL,***,2022-01-20,17:32:00,SIM,ATIVA,A-011/CENIPA/2022,NÃO,NULL,0,1,NÃO
80493,80493,80493,80493,80493,INCIDENTE,-22.50666667,-46.63388889,SÃO PAULO,SP,BRASIL,SBMT,2022-01-20,13:45:00,SIM,FINALIZADA,***,NÃO,NULL,0,1,NÃO
80494,80494,80494,80494,80494,INCIDENTE,-23.48305556,-47.48638889,SOROCABA,SP,BRASIL,SDCO,2022-01-20,0:10:00,SIM,FINALIZADA,***,NÃO,NULL,0,1,NÃO
80488,80488,80488,80488,80488,ACIDENTE,-25.403333,-49.233611,CURITIBA,PR,BRASIL,SBBI,2022-01-19,16:05:00,SIM,ATIVA,A-008/CENIPA/2022,NÃO,NULL,0,1,NÃO
80489,80489,80489,80489,80489,ACIDENTE,-27.426684,-48.469009,FLORIANÓPOLIS,SC,BRASIL,***,2022-01-19,20:20:00,SIM,ATIVA,A-009/CENIPA/2022,NÃO,NULL,0,1,NÃO
80492,80492,80492,80492,80492,INCIDENTE GRAVE,-43.95055,-19.85194,BELO HORIZONTE,MG,BRASIL,SBBH,2022-01-19,19:50:00,SIM,ATIVA,IG-010/CENIPA/2022,NÃO,NULL,0,1,SIM
80480,80480,80480,80480,80480,INCIDENTE GRAVE,-22.30218,-50.05318,MARÍLIA,SP,BRASIL,***,2022-01-17,17:30:00,SIM,FINALIZADA,***,NÃO,NULL,0,1,NÃO
80481,80481,80481,80481,80481,ACIDENTE,-11.68,-52.071111,SÃO FÉLIX DO ARAGUAIA,MT,BRASIL,**NI,2022-01-16,16:45:00,SIM,ATIVA,A-007/CENIPA/2022,NÃO,NULL,0,1,NÃO
80474,80474,80474,80474,80474,INCIDENTE,-7.49222222,-50.57916667,BANNACH,PA,BRASIL,***,2022-01-15,10:20:00,SIM,FINALIZADA,***,NÃO,NULL,0,1,NÃO
80475,80475,80475,80475,80475,ACIDENTE,-8.01194,-44.72111,URUÇUÍ,PI,BRASIL,SDZS,2022-01-15,9:05:00,SIM,ATIVA,A-005/CENIPA/2022,NÃO,NULL,0,1,NÃO
80476,80476,80476,80476,80476,INCIDENTE,-5.36805556,-49.13805556,MARABÁ,PA,BRASIL,SBMA,2022-01-15,13:04:00,SIM,FINALIZADA,***,NÃO,NULL,0,1,NÃO
80479,80479,80479,80479,80479,INCIDENTE,-23.181667,-46.943611,JUNDIAÍ,SP,BRASIL,SBJD,2022-01-15,16:13:00,SIM,FINALIZADA,***,NÃO,NULL,0,1,SIM
80483,80483,80483,80483,80483,ACIDENTE,-20.96277778,-49.21361111,UCHOA,SP,BRASIL,***,2022-01-15,13:40:00,SIM,ATIVA,A-006/CENIPA/2022,NÃO,NULL,0,1,NÃO
80477,80477,80477,80477,80477,INCIDENTE GRAVE,-31.327778,-54.135833,BAGÉ,RS,BRASIL,SIBK,2022-01-14,18:15:00,SIM,FINALIZADA,***,NÃO,NULL,0,1,NÃO
80478,80478,80478,80478,80478,ACIDENTE,-21.863889,-49.738889,CAFELÂNDIA,SP,BRASIL,***,2022-01-14,13:30:00,SIM,ATIVA,A-004/CENIPA/2022,NÃO,NULL,0,1,NÃO
80484,80484,80484,80484,80484,INCIDENTE,-20.18194,-44.87,DIVINÓPOLIS,MG,BRASIL,SNDV,2022-01-14,16:00:00,SIM,FINALIZADA,***,NÃO,NULL,0,1,NÃO
80518,80518,80518,80518,80518,INCIDENTE,-25.53166667,-49.17611111,CURITIBA,PR,BRASIL,SBCT,2022-01-14,6:03:00,SIM,FINALIZADA,***,NÃO,NULL,0,1,NÃO
80591,80591,80591,80591,80591,INCIDENTE,-26.223056,-48.797778,JOINVILLE,SC,BRASIL,***,2022-01-14,21:00:00,SIM,FINALIZADA,***,NÃO,NULL,0,1,NÃO
80482,80482,80482,80482,80482,INCIDENTE,-20.18194444,-44.87,DIVINÓPOLIS,MG,BRASIL,SNDV,2022-01-13,10:00:00,SIM,FINALIZADA,***,NÃO,NULL,0,1,NÃO
80534,80534,80534,80534,80534,INCIDENTE,-23.426944,-47.165833,SÃO ROQUE,SP,BRASIL,SBJH,2022-01-13,14:05:00,SIM,FINALIZADA,***,NÃO,NULL,0,1,NÃO
80472,80472,80472,80472,80472,ACIDENTE,-12.93724,-57.343647,BRASNORTE,MT,BRASIL,**NI,2022-01-12,15:10:00,SIM,ATIVA,A-003/CENIPA/2022,NÃO,NULL,0,1,NÃO
80473,80473,80473,80473,80473,INCIDENTE,-23.50666667,-46.63388889,SÃO PAULO,SP,BRASIL,SBMT,2022-01-12,13:03:00,SIM,FINALIZADA,***,NÃO,NULL,0,1,NÃO
80515,80515,80515,80515,80515,INCIDENTE,-3.041111111,-60.05055556,MANAUS,AM,BRASIL,SBEG,2022-01-10,13:26:00,SIM,FINALIZADA,***,NÃO,NULL,0,1,NÃO
80469,80469,80469,80469,80469,INCIDENTE GRAVE,15.4,45.768,CHAPADA GAÚCHA,MG,BRASIL,***,2022-01-09,7:45:00,SIM,FINALIZADA,***,NÃO,NULL,0,1,NÃO
80471,80471,80471,80471,80471,ACIDENTE,-7.82361,46.39472,BALSAS,MA,BRASIL,***,2022-01-09,15:40:00,SIM,ATIVA,A-002/CENIPA/2022,NÃO,NULL,0,1,NÃO
80470,80470,80470,80470,80470,ACIDENTE,-13.442778,-54.925278,NOVA UBIRATÃ,MT,BRASIL,***,2022-01-08,12:30:00,SIM,ATIVA,A-001/CENIPA/2022,NÃO,NULL,0,1,NÃO
80462,80462,80462,80462,80462,INCIDENTE,-26.878611,-48.650833,NAVEGANTES,SC,BRASIL,SBNF,2022-01-04,14:18:00,SIM,FINALIZADA,***,NÃO,NULL,0,1,NÃO
80466,80466,80466,80466,80466,INCIDENTE,-26.87861111,-48.65083333,NAVEGANTES,SC,BRASIL,SBNF,2022-01-04,21:30:00,SIM,FINALIZADA,***,NÃO,NULL,0,1,NÃO
80511,80511,80511,80511,80511,INCIDENTE,-8.126388889,-34.92277778,RECIFE,PE,BRASIL,SBRF,2022-01-04,9:35:00,SIM,FINALIZADA,***,NÃO,NULL,0,1,NÃO
80464,80464,80464,80464,80464,INCIDENTE,-7.599444,-72.769444,CRUZEIRO DO SUL,AC,BRASIL,SBCZ,2022-01-03,16:23:00,SIM,FINALIZADA,***,NÃO,NULL,0,1,NÃO
80513,80513,80513,80513,80513,INCIDENTE,-23.62611111,-46.65638889,SÃO PAULO,SP,BRASIL,SBSP,2022-01-03,9:40:00,SIM,FINALIZADA,***,NÃO,NULL,0,1,NÃO
80452,80452,80452,80452,80452,ACIDENTE,-22.585556,-50.753889,MARACAÍ,SP,BRASIL,**NI,2021-12-31,9:30:00,SIM,ATIVA,A-152/CENIPA/2021,NÃO,NULL,0,1,NÃO
80457,80457,80457,80457,80457,INCIDENTE GRAVE,-29.695833,-51.081667,NOVO HAMBURGO,RS,BRASIL,SSNH,2021-12-31,11:59:00,SIM,FINALIZADA,***,NÃO,NULL,0,1,NÃO
80460,80460,80460,80460,80460,INCIDENTE,-25.403333,-49.233611,CURITIBA,PR,BRASIL,SBBI,2021-12-31,15:12:00,SIM,FINALIZADA,***,NÃO,NULL,0,1,NÃO
80467,80467,80467,80467,80467,INCIDENTE,-9.3675,-40.56361111,PETROLINA,PE,BRASIL,SBPL,2021-12-31,20:30:00,SIM,FINALIZADA,***,NÃO,NULL,0,1,NÃO
80451,80451,80451,80451,80451,INCIDENTE,-3.04111111,-60.05055556,MANAUS,AM,BRASIL,SBEG,2021-12-30,14:41:00,SIM,FINALIZADA,***,NÃO,NULL,0,1,NÃO
80456,80456,80456,80456,80456,INCIDENTE,-23.626111,-46.656389,SÃO PAULO,SP,BRASIL,SBSP,2021-12-30,13:15:00,SIM,FINALIZADA,***,NÃO,NULL,0,1,SIM
80458,80458,80458,80458,80458,ACIDENTE,-17.999194,-51.642861,JATAÍ,GO,BRASIL,APUA,2021-12-30,20:30:00,SIM,ATIVA,A-151/CENIPA/2021,NÃO,NULL,0,1,SIM
80453,80453,80453,80453,80453,INCIDENTE,-23.00694444,-47.13444444,CAMPINAS,SP,BRASIL,SBKP,2021-12-29,9:00:00,SIM,FINALIZADA,***,NÃO,NULL,0,1,NÃO
80454,80454,80454,80454,80454,INCIDENTE GRAVE,-21.144167,-50.426389,ARAÇATUBA,SP,BRASIL,SBAU,2021-12-29,21:35:00,SIM,FINALIZADA,***,NÃO,NULL,0,1,SIM
80455,80455,80455,80455,80455,INCIDENTE GRAVE,-7.04638,-34.91277,SANTA RITA,PB,BRASIL,**NI,2021-12-29,18:50:00,SIM,FINALIZADA,***,NÃO,NULL,0,1,SIM
80450,80450,80450,80450,80450,ACIDENTE,-22.09388889,-55.37583333,DOURADOS,MS,BRASIL,**NI,2021-12-28,10:30:00,SIM,ATIVA,A-150/CENIPA/2021,NÃO,NULL,0,1,SIM
80463,80463,80463,80463,80463,INCIDENTE,-23.479444,-52.012222,MARINGÁ,PR,BRASIL,SBMG,2021-12-28,16:11:00,SIM,FINALIZADA,***,NÃO,NULL,0,1,NÃO
80468,80468,80468,80468,80468,INCIDENTE,-12.91416667,-38.33222222,SALVADOR,BA,BRASIL,SBSV,2021-12-26,16:56:00,SIM,ATIVA,I-149/CENIPA/2021,NÃO,NULL,0,2,NÃO
80509,80509,80509,80509,80509,INCIDENTE,-15.65,-56.1175,CUIABÁ,MT,BRASIL,SBCY,2021-12-26,1:53:00,SIM,FINALIZADA,***,NÃO,NULL,0,1,NÃO
80461,80461,80461,80461,80461,INCIDENTE,-23.47944444,-52.01222222,MARINGÁ,PR,BRASIL,SBMG,2021-12-24,3:30:00,SIM,FINALIZADA,***,NÃO,NULL,0,1,NÃO
80510,80510,80510,80510,80510,INCIDENTE,-23.47944444,-52.01222222,MARINGÁ,PR,BRASIL,SBMG,2021-12-24,3:30:00,SIM,FINALIZADA,***,NÃO,NULL,0,1,NÃO
80545,80545,80545,80545,80545,INCIDENTE,-23.43555556,-46.47305556,GUARULHOS,SP,BRASIL,SBGR,2021-12-22,11:50:00,SIM,FINALIZADA,***,NÃO,NULL,0,1,NÃO
80465,80465,80465,80465,80465,INCIDENTE,-20.25666667,-40.28611111,VITÓRIA,ES,BRASIL,SBVT,2021-12-21,22:25:00,SIM,FINALIZADA,***,NÃO,NULL,0,1,NÃO
80583,80583,80583,80583,80583,INCIDENTE,-23.43555556,-46.47305556,GUARULHOS,SP,BRASIL,SBGR,2021-12-21,10:33:00,SIM,FINALIZADA,***,NÃO,NULL,0,2,NÃO
80441,80441,80441,80441,80441,ACIDENTE,-23.0052,-46.6336,BRAGANÇA PAULISTA,SP,BRASIL,SDVH,2021-12-20,18:15:00,SIM,ATIVA,A-148/CENIPA/2021,NÃO,NULL,0,1,SIM
80444,80444,80444,80444,80444,ACIDENTE,-21.440279°,-52.4453257°,SANTA RITA DO PARDO,MS,BRASIL,***,2021-12-20,14:30:00,SIM,ATIVA,A-147/CENIPA/2021,NÃO,NULL,0,1,NÃO
80445,80445,80445,80445,80445,ACIDENTE,-12.545,-60.867222,CHUPINGUAIA,RO,BRASIL,APUA,2021-12-20,12:05:00,SIM,ATIVA,A-145/CENIPA/2021,NÃO,NULL,0,1,SIM
80446,80446,80446,80446,80446,ACIDENTE,-9.13611,-57.05444,JACAREACANGA,PA,BRASIL,**NI,2021-12-20,17:10:00,SIM,ATIVA,A-146/CENIPA/2021,NÃO,NULL,0,1,NÃO
80440,80440,80440,80440,80440,ACIDENTE,-28.874307,-55.82423,SÃO BORJA,RS,BRASIL,***,2021-12-19,12:00:00,SIM,ATIVA,A-144/CENIPA/2021,NÃO,NULL,0,1,NÃO
80443,80443,80443,80443,80443,INCIDENTE,-12.90861111,-38.3225,SALVADOR,BA,BRASIL,SBSV,2021-12-18,14:30:00,SIM,FINALIZADA,***,NÃO,NULL,0,1,NÃO
80448,80448,80448,80448,80448,INCIDENTE GRAVE,-11.895278,-49.692222,FORMOSO DO ARAGUAIA,TO,BRASIL,**NI,2021-12-18,19:00:00,SIM,FINALIZADA,***,NÃO,NULL,0,1,SIM
80431,80431,80431,80431,80431,INCIDENTE,-23.928,-46.2997,SANTOS,SP,BRASIL,SBST,2021-12-15,12:30:00,SIM,FINALIZADA,***,NÃO,NULL,0,1,NÃO
80447,80447,80447,80447,80447,INCIDENTE,-19.62444444,-43.97194444,CONFINS,MG,BRASIL,SBCF,2021-12-15,17:10:00,SIM,FINALIZADA,***,NÃO,NULL,0,1,NÃO
80429,80429,80429,80429,80429,ACIDENTE,-27.903611,-54.514444,SANTA ROSA,RS,BRASIL,SSZR,2021-12-14,13:00:00,SIM,ATIVA,A-143/CENIPA/2021,NÃO,NULL,0,1,SIM
80434,80434,80434,80434,80434,ACIDENTE,-21.942778,-56.885556,CARACOL,MS,BRASIL,***,2021-12-14,21:35:00,SIM,ATIVA,A-142/CENIPA/2021,NÃO,NULL,0,1,NÃO
80427,80427,80427,80427,80427,INCIDENTE GRAVE,-10.022222,-58.237222,NOVA BANDEIRANTES,MT,BRASIL,**NI,2021-12-12,17:20:00,SIM,FINALIZADA,***,NÃO,NULL,0,1,SIM
80435,80435,80435,80435,80435,INCIDENTE,-20.25805556,-40.28638889,VITÓRIA,ES,BRASIL,SBVT,2021-12-12,23:30:00,SIM,FINALIZADA,***,NÃO,NULL,0,1,NÃO
80426,80426,80426,80426,80426,ACIDENTE,-22.182225°,-52.693583°,ANAURILÂNDIA,MS,BRASIL,**NI,2021-12-11,20:00:00,SIM,ATIVA,A-141/CENIPA/2021,NÃO,NULL,0,1,NÃO
80428,80428,80428,80428,80428,ACIDENTE,-33.105278,-53.039167,SANTA VITÓRIA DO PALMAR,RS,BRASIL,***,2021-12-11,19:40:00,NÃO,ATIVA,A-140/CENIPA/2021,NÃO,NULL,0,1,NÃO
80430,80430,80430,80430,80430,INCIDENTE,-22.81,-43.25055556,RIO DE JANEIRO,RJ,BRASIL,SBGL,2021-12-10,11:05:00,SIM,FINALIZADA,***,NÃO,NULL,0,1,NÃO
80538,80538,80538,80538,80538,INCIDENTE,-14.815,-39.03333,ILHÉUS,BA,BRASIL,SBIL,2021-12-10,22:40:00,SIM,FINALIZADA,***,NÃO,NULL,0,1,NÃO
80425,80425,80425,80425,80425,INCIDENTE,-23.626111,-46.656389,SÃO PAULO,SP,BRASIL,SBSP,2021-12-09,20:30:00,SIM,FINALIZADA,***,NÃO,NULL,0,1,NÃO
80436,80436,80436,80436,80436,INCIDENTE,-10.29,-48.35777778,PALMAS,TO,BRASIL,SBPJ,2021-12-09,22:10:00,SIM,FINALIZADA,***,NÃO,NULL,0,1,NÃO
80526,80526,80526,80526,80526,INCIDENTE GRAVE,-22.58339314,-47.89613256,SÃO PEDRO,SP,BRASIL,SDAE,2021-12-09,15:00:00,SIM,FINALIZADA,***,NÃO,NULL,0,1,NÃO
80544,80544,80544,80544,80544,INCIDENTE,-23.435556,-46.473056,GUARULHOS,SP,BRASIL,SBGR,2021-12-09,11:53:00,SIM,FINALIZADA,***,NÃO,NULL,0,1,NÃO
80420,80420,80420,80420,80420,INCIDENTE,-25.294167,-49.276111 W,CURITIBA,PR,BRASIL,SBBI,2021-12-08,13:16:00,SIM,FINALIZADA,***,NÃO,NULL,0,1,NÃO
80423,80423,80423,80423,80423,ACIDENTE,-12.09,-57.990833,BRASNORTE,MT,BRASIL,***,2021-12-08,12:45:00,SIM,ATIVA,A-139/CENIPA/2021,NÃO,NULL,0,1,NÃO
80438,80438,80438,80438,80438,INCIDENTE,-22.81,-43.25055556,RIO DE JANEIRO,RJ,BRASIL,SBGL,2021-12-08,21:35:00,SIM,FINALIZADA,***,NÃO,NULL,0,1,NÃO
80442,80442,80442,80442,80442,ACIDENTE,-23.025686,-55.589057,ARAL MOREIRA,MS,BRASIL,***,2021-12-08,0:00:00,SIM,FINALIZADA,A DEFINIR,NÃO,NULL,0,1,NÃO
80418,80418,80418,80418,80418,ACIDENTE,-19.71083333,-48.43444444,VERÍSSIMO,MG,BRASIL,**NI,2021-12-07,11:10:00,SIM,ATIVA,A-138/CENIPA/2021,NÃO,NULL,0,1,NÃO
80424,80424,80424,80424,80424,INCIDENTE,-20.81611111,-49.40472222,SÃO JOSÉ DO RIO PRETO,SP,BRASIL,SBSR,2021-12-07,19:51:00,SIM,FINALIZADA,***,NÃO,NULL,0,1,NÃO
80433,80433,80433,80433,80433,INCIDENTE,-23.00694444,-47.13444444,CAMPINAS,SP,BRASIL,SBKP,2021-12-07,22:00:00,SIM,FINALIZADA,***,NÃO,NULL,0,1,NÃO
80412,80412,80412,80412,80412,INCIDENTE,-25.403333,-49.233611,CURITIBA,PR,BRASIL,SBBI,2021-12-05,12:00:00,SIM,FINALIZADA,***,NÃO,NULL,0,1,NÃO
80419,80419,80419,80419,80419,ACIDENTE,-10.884167,-49.617222,LAGOA DA CONFUSÃO,TO,BRASIL,***,2021-12-05,17:55:00,SIM,ATIVA,A-137/CENIPA/2021,NÃO,NULL,0,1,NÃO
80415,80415,80415,80415,80415,ACIDENTE,-6.71944,-51.61194,SÃO FÉLIX DO XINGU,PA,BRASIL,***,2021-12-03,20:00:00,SIM,ATIVA,A-135/CENIPA/2021,NÃO,NULL,0,1,NÃO
80416,80416,80416,80416,80416,INCIDENTE,-3.041111111,-60.05055556,MANAUS,AM,BRASIL,SBEG,2021-12-03,4:00:00,SIM,FINALIZADA,***,NÃO,NULL,0,1,NÃO
80417,80417,80417,80417,80417,ACIDENTE,-20.89472,-44.82416,SANTO ANTÔNIO DO AMPARO,MG,BRASIL,***,2021-12-03,11:00:00,SIM,ATIVA,A-136/CENIPA/2021,NÃO,NULL,0,1,NÃO
80410,80410,80410,80410,80410,INCIDENTE,-22.81,-43.25055556,RIO DE JANEIRO,RJ,BRASIL,SBGL,2021-12-02,9:20:00,SIM,FINALIZADA,***,NÃO,NULL,0,1,NÃO
80411,80411,80411,80411,80411,INCIDENTE GRAVE,-44.95722,-21.24055,LAVRAS,MG,BRASIL,SSOL,2021-12-02,12:15:00,SIM,FINALIZADA,***,NÃO,NULL,0,1,NÃO
80414,80414,80414,80414,80414,INCIDENTE,-29.044444,-51.143056,FLORES DA CUNHA,RS,BRASIL,SIFQ,2021-12-02,18:00:00,SIM,FINALIZADA,***,NÃO,NULL,0,1,NÃO
80413,80413,80413,80413,80413,INCIDENTE GRAVE,-20.31388889,-53.76805556,RIBAS DO RIO PARDO,MS,BRASIL,SSWF,2021-12-01,10:30:00,SIM,FINALIZADA,***,NÃO,NULL,0,1,NÃO
80422,80422,80422,80422,80422,INCIDENTE,-19.62444444,-43.97194444,BELO HORIZONTE,MG,BRASIL,SBCF,2021-12-01,23:05:00,SIM,FINALIZADA,***,NÃO,NULL,0,1,NÃO
80409,80409,80409,80409,80409,INCIDENTE GRAVE,-22.54972222,-55.70305556,PONTA PORÃ,MS,BRASIL,SBPP,2021-11-30,19:05:00,SIM,FINALIZADA,***,NÃO,NULL,0,1,NÃO
80408,80408,80408,80408,80408,INCIDENTE,-29.99472222,-51.17111111,PORTO ALEGRE,RS,BRASIL,SBPA,2021-11-29,22:10:00,SIM,FINALIZADA,***,NÃO,NULL,0,1,NÃO
80421,80421,80421,80421,80421,INCIDENTE,-23.43555556,-46.47305556,SÃO PAULO,SP,BRASIL,SBSP,2021-11-29,19:55:00,SIM,FINALIZADA,***,NÃO,NULL,0,1,NÃO
80756,80756,80756,80756,80756,ACIDENTE,-14.198333,-53.984444,PARANATINGA,MT,BRASIL,**NI,2021-11-28,20:30:00,SIM,ATIVA,A-153/CENIPA/2021,NÃO,NULL,0,1,NÃO
80401,80401,80401,80401,80401,INCIDENTE,-19.56055556,-46.96555556,ARAXÁ,MG,BRASIL,SBAX,2021-11-25,18:08:00,SIM,FINALIZADA,***,NÃO,NULL,0,1,NÃO
80402,80402,80402,80402,80402,ACIDENTE,-15.65,-56.1175,CUIABÁ,MT,BRASIL,SBCY,2021-11-25,5:45:00,SIM,ATIVA,A-133/CENIPA/2021,NÃO,NULL,0,1,NÃO
80406,80406,80406,80406,80406,ACIDENTE,-23.413333,-44.799722,UBATUBA,SP,BRASIL,***,2021-11-25,0:27:00,NÃO,ATIVA,A-134/CENIPA/2021,NÃO,NULL,0,1,NÃO
80398,80398,80398,80398,80398,ACIDENTE,-17.7175,-45.819167,JOÃO PINHEIRO,MG,BRASIL,***,2021-11-24,11:40:00,NÃO,ATIVA,A-132/CENIPA/2021,NÃO,NULL,0,1,NÃO
80404,80404,80404,80404,80404,INCIDENTE,-23.09,-52.488611,PARANAVAÍ,PR,BRASIL,SSPI,2021-11-24,16:00:00,SIM,FINALIZADA,***,NÃO,NULL,0,1,NÃO
80397,80397,80397,80397,80397,INCIDENTE GRAVE,-18.366667,-50.359444,QUIRINÓPOLIS,GO,BRASIL,**NI,2021-11-23,10:00:00,SIM,FINALIZADA,***,NÃO,NULL,0,1,SIM
80395,80395,80395,80395,80395,INCIDENTE GRAVE,-2.84139,-60.69222,BOA VISTA,RR,BRASIL,SBBV,2021-11-22,6:40:00,SIM,ATIVA,IG-131/CENIPA/2021,NÃO,NULL,0,1,NÃO
80390,80390,80390,80390,80390,ACIDENTE,-22.38166667,-47.5625,RIO CLARO,SP,BRASIL,SDRK,2021-11-21,14:00:00,SIM,ATIVA,A-130/CENIPA/2021,NÃO,NULL,0,1,NÃO
80388,80388,80388,80388,80388,INCIDENTE,1.825,-61.139167,CARACARAÍ,RR,BRASIL,***,2021-11-19,16:40:00,SIM,FINALIZADA,***,NÃO,NULL,0,1,NÃO
80393,80393,80393,80393,80393,ACIDENTE,0.597222,-59.221667,CAROEBE,RR,BRASIL,SJLJ,2021-11-19,19:15:00,SIM,ATIVA,A-129/CENIPA/2021,NÃO,NULL,0,1,SIM
80389,80389,80389,80389,80389,INCIDENTE,-22.54972222,-55.70305556,PONTA PORÃ,MS,BRASIL,SBPP,2021-11-18,14:43:00,SIM,FINALIZADA,***,NÃO,NULL,0,1,NÃO
80386,80386,80386,80386,80386,INCIDENTE GRAVE,-23.47944444,-52.01222222,MARINGÁ,PR,BRASIL,SBMG,2021-11-17,2:35:00,SIM,ATIVA,IG-128/CENIPA/2021,NÃO,NULL,0,1,SIM
80394,80394,80394,80394,80394,INCIDENTE,-5.060555556,-42.82444444,TERESINA,PI,BRASIL,SBTE,2021-11-17,14:40:00,SIM,FINALIZADA,***,NÃO,NULL,0,1,NÃO
80405,80405,80405,80405,80405,INCIDENTE,-23.50666667,-46.63388889,SÃO PAULO,SP,BRASIL,SBMT,2021-11-17,15:52:00,SIM,FINALIZADA,***,NÃO,NULL,0,1,NÃO
80382,80382,80382,80382,80382,INCIDENTE GRAVE,-22.71,-47.62,PIRACICABA,SP,BRASIL,SDPW,2021-11-16,20:50:00,SIM,FINALIZADA,***,NÃO,NULL,0,1,SIM
80407,80407,80407,80407,80407,INCIDENTE,-29.99472222,-51.17111111,PORTO ALEGRE,RS,BRASIL,SBPA,2021-11-16,22:10:00,SIM,FINALIZADA,***,NÃO,NULL,0,1,NÃO
80396,80396,80396,80396,80396,INCIDENTE GRAVE,-26.058889 S,-53.063333 W,FRANCISCO BELTRÃO,PR,BRASIL,SSFB,2021-11-15,18:40:00,SIM,FINALIZADA,***,NÃO,NULL,0,1,NÃO
80384,80384,80384,80384,80384,INCIDENTE GRAVE,-16.625007,-49.349905,GOIÂNIA,GO,BRASIL,SBNV,2021-11-14,18:48:00,SIM,FINALIZADA,***,NÃO,NULL,0,1,SIM
80403,80403,80403,80403,80403,INCIDENTE,-5.768888889,-35.36638889,NATAL,RN,BRASIL,SBSG,2021-11-14,18:35:00,SIM,FINALIZADA,***,NÃO,NULL,0,1,NÃO
80380,80380,80380,80380,80380,ACIDENTE,-23.129315,-46.57472,ATIBAIA,SP,BRASIL,SDTB,2021-11-13,15:00:00,SIM,ATIVA,A-127/CENIPA/2021,NÃO,NULL,0,1,SIM
80381,80381,80381,80381,80381,INCIDENTE,-3.072778,-60.021111,MANAUS,AM,BRASIL,SWFN,2021-11-12,18:25:00,SIM,FINALIZADA,***,NÃO,NULL,0,1,NÃO
80383,80383,80383,80383,80383,ACIDENTE,-10.418333,-49.88,LAGOA DA CONFUSÃO,TO,BRASIL,***,2021-11-11,12:40:00,SIM,FINALIZADA,A-126/CENIPA/2021,SIM,7/8/2022,0,1,NÃO
80372,80372,80372,80372,80372,INCIDENTE,-3.072778,-60.021111,MANAUS,AM,BRASIL,SWFN,2021-11-08,12:17:00,SIM,FINALIZADA,***,NÃO,NULL,0,1,NÃO
80373,80373,80373,80373,80373,ACIDENTE,-19.9916,-44.01527,BELO HORIZONTE,MG,BRASIL,***,2021-11-08,10:35:00,SIM,ATIVA,A-125/CENIPA/2021,NÃO,NULL,0,1,NÃO
80363,80363,80363,80363,80363,INCIDENTE,-22.979167°,-46.537500°,SÃO PAULO,SP,BRASIL,SBBP,2021-11-07,12:43:00,SIM,FINALIZADA,***,NÃO,NULL,0,1,NÃO
80365,80365,80365,80365,80365,ACIDENTE,-6.01138,-35.29166,SÃO JOSÉ DE MIPIBU,RN,BRASIL,SSCE,2021-11-07,19:08:00,SIM,FINALIZADA,A-124/CENIPA/2021,SIM,7/8/2022,0,1,NÃO
80385,80385,80385,80385,80385,INCIDENTE,-23.00694444,-47.13444444,CAMPINAS,SP,BRASIL,SBKP,2021-11-07,12:05:00,SIM,FINALIZADA,***,NÃO,NULL,0,1,NÃO
80399,80399,80399,80399,80399,INCIDENTE,-22.81,-43.25055556,RIO DE JANEIRO,RJ,BRASIL,SBGL,2021-11-07,21:57:00,SIM,FINALIZADA,***,NÃO,NULL,0,1,NÃO
80543,80543,80543,80543,80543,INCIDENTE,-23.435556,-46.473056,GUARULHOS,SP,BRASIL,SBGR,2021-11-07,19:40:00,SIM,FINALIZADA,***,NÃO,NULL,0,1,NÃO
80361,80361,80361,80361,80361,ACIDENTE,-20.573611°,-49.108889°,ALTAIR,SP,BRASIL,**NI,2021-11-06,11:10:00,SIM,ATIVA,A-123/CENIPA/2021,NÃO,NULL,0,1,SIM
80367,80367,80367,80367,80367,ACIDENTE,-7.664444444,-50.02305556,PAU D'ARCO,PA,BRASIL,***,2021-11-06,14:15:00,SIM,ATIVA,A-122/CENIPA/2021,NÃO,NULL,0,1,SIM
80374,80374,80374,80374,80374,INCIDENTE,-23.228889°,-45.871111°,SÃO JOSÉ DOS CAMPOS,SP,BRASIL,SBSJ,2021-11-06,14:17:00,SIM,FINALIZADA,***,NÃO,NULL,0,1,NÃO
80362,80362,80362,80362,80362,INCIDENTE,-23.506667°,-46.633889°,SÃO PAULO,SP,BRASIL,SBMT,2021-11-05,21:46:00,SIM,FINALIZADA,***,NÃO,NULL,0,1,NÃO
80364,80364,80364,80364,80364,INCIDENTE,-26.832778 S,-49.093611 W,BLUMENAU,SC,BRASIL,SSBL,2021-11-05,17:10:00,SIM,FINALIZADA,***,NÃO,NULL,0,2,NÃO
80366,80366,80366,80366,80366,INCIDENTE,-8.713611,-63.902778,PORTO VELHO,RO,BRASIL,SBPV,2021-11-05,17:56:00,SIM,FINALIZADA,***,NÃO,NULL,0,1,NÃO
80369,80369,80369,80369,80369,ACIDENTE,-19.7653736,-42.1083691,PIEDADE DE CARATINGA,MG,BRASIL,SNCT,2021-11-05,18:15:00,NÃO,ATIVA,A-121/CENIPA/2021,NÃO,NULL,0,1,NÃO
80379,80379,80379,80379,80379,INCIDENTE,-20.469444°,-54.670278°,CAMPO GRANDE,MS,BRASIL,SBCG,2021-11-05,12:00:00,SIM,FINALIZADA,***,NÃO,NULL,0,1,NÃO
80378,80378,80378,80378,80378,INCIDENTE,-1.38472,-48.47888,BRASÍLIA,DF,BRASIL,SBBR,2021-11-04,12:35:00,SIM,FINALIZADA,***,NÃO,NULL,0,1,NÃO
80360,80360,80360,80360,80360,INCIDENTE,-24.928889,-53.496111,CASCAVEL,PR,BRASIL,SILQ,2021-11-02,12:00:00,SIM,FINALIZADA,***,NÃO,NULL,0,1,NÃO
80377,80377,80377,80377,80377,INCIDENTE,-20.25805556,-40.28638889,VITÓRIA,ES,BRASIL,SBVT,2021-11-01,0:00:00,SIM,FINALIZADA,***,NÃO,NULL,0,1,NÃO
80375,80375,80375,80375,80375,INCIDENTE,-20.46944444,-54.67027778,CAMPO GRANDE,MS,BRASIL,SBCG,2021-10-31,19:20:00,SIM,FINALIZADA,***,NÃO,NULL,0,1,NÃO
80392,80392,80392,80392,80392,INCIDENTE,-23.43555556,-46.47305556,GUARULHOS,SP,BRASIL,SBGR,2021-10-30,16:35:00,SIM,FINALIZADA,***,NÃO,NULL,0,1,NÃO
80351,80351,80351,80351,80351,ACIDENTE,-12,,,,,,,,,,,,,,,
80371,80371,80371,80371,80371,INCIDENTE,-23.00694444,-47.13444444,CAMPINAS,SP,BRASIL,SBKP,2021-10-29,20:05:00,SIM,FINALIZADA,***,NÃO,NULL,0,1,NÃO
80376,80376,80376,80376,80376,INCIDENTE,-19.62444444,-43.97194444,CONFINS,MG,BRASIL,SBCF,2021-10-29,21:25:00,SIM,FINALIZADA,***,NÃO,NULL,0,1,NÃO
80349,80349,80349,80349,80349,ACIDENTE,-20.227778°,-50.968333°,SANTA FÉ DO SUL,SP,BRASIL,SILT,2021-10-25,17:50:00,SIM,ATIVA,A-117/CENIPA/2021,NÃO,NULL,0,1,SIM
80345,80345,80345,80345,80345,INCIDENTE,-19.85194,-43.95055,BELO HORIZONTE,MG,BRASIL,SBBH,2021-10-24,7:12:00,SIM,FINALIZADA,***,NÃO,NULL,0,1,NÃO
80348,80348,80348,80348,80348,ACIDENTE,-12.713889,-60.202778,VILHENA,RO,BRASIL,***,2021-10-24,18:40:00,SIM,ATIVA,A-116/CENIPA/2021,NÃO,NULL,0,1,NÃO
80340,80340,80340,80340,80340,INCIDENTE,-18.459594,-50.148162,GOUVELÂNDIA,GO,BRASIL,APUA,2021-10-23,11:30:00,SIM,FINALIZADA,***,NÃO,NULL,0,1,NÃO
80341,80341,80341,80341,80341,INCIDENTE,-4.242593461,-56.00131675,ITAITUBA,PA,BRASIL,SBIH,2021-10-23,19:22:00,SIM,FINALIZADA,***,NÃO,NULL,0,1,NÃO
80343,80343,80343,80343,80343,INCIDENTE,-23.50666,-46.63388,SÃO PAULO,SP,BRASIL,SBMT,2021-10-23,14:38:00,SIM,FINALIZADA,***,NÃO,NULL,0,1,NÃO
80358,80358,80358,80358,80358,ACIDENTE,-17.719167°,-56.997500°,CORUMBÁ,MS,BRASIL,SIFW,2021-10-23,14:15:00,SIM,ATIVA,A-120/CENIPA/2021,NÃO,NULL,0,1,NÃO
80338,80338,80338,80338,80338,ACIDENTE,-12.834834,-50.75549,COCALINHO,MT,BRASIL,***,2021-10-22,14:55:00,SIM,ATIVA,A-114/CENIPA/2021,NÃO,NULL,0,1,NÃO
80339,80339,80339,80339,80339,INCIDENTE GRAVE,-16.585525,-54.7246,RONDONÓPOLIS,MT,BRASIL,SBRD,2021-10-22,17:30:00,SIM,ATIVA,IG-115/CENIPA/2021,NÃO,NULL,0,1,SIM
80342,80342,80342,80342,80342,INCIDENTE,-23.181666,-46.943611,JUNDIAÍ,SP,BRASIL,SBJD,2021-10-22,14:50:00,SIM,FINALIZADA,***,NÃO,NULL,0,1,NÃO
80344,80344,80344,80344,80344,INCIDENTE GRAVE,-3,,,,,,,,,,,,,,,
80347,80347,80347,80347,80347,INCIDENTE,-16.70611111,-43.82194444,MONTES CLAROS,MG,BRASIL,SBMK,2021-10-22,9:20:00,SIM,FINALIZADA,***,NÃO,NULL,0,1,NÃO
80337,80337,80337,80337,80337,INCIDENTE GRAVE,-19.8425,-44.60083,PARÁ DE MINAS,MG,BRASIL,***,2021-10-20,17:23:00,SIM,FINALIZADA,***,NÃO,NULL,0,1,NÃO
80334,80334,80334,80334,80334,INCIDENTE,-16.43805556,-39.08388889,PORTO SEGURO,BA,BRASIL,SBPS,2021-10-19,14:27:00,SIM,FINALIZADA,***,NÃO,NULL,0,1,NÃO
80332,80332,80332,80332,80332,INCIDENTE,-23.43555556,-46.47305556,GUARULHOS,SP,BRASIL,SBGR,2021-10-15,13:42:00,SIM,FINALIZADA,***,NÃO,NULL,0,1,NÃO
80336,80336,80336,80336,80336,INCIDENTE,-1.384722222,-48.47888889,BELÉM,PA,BRASIL,SBBE,2021-10-15,19:53:00,SIM,FINALIZADA,***,NÃO,NULL,0,1,NÃO
80330,80330,80330,80330,80330,INCIDENTE,-22.17833333,-51.41888889,PRESIDENTE PRUDENTE,SP,BRASIL,SBDN,2021-10-14,8:35:00,SIM,FINALIZADA,***,NÃO,NULL,0,1,NÃO
80331,80331,80331,80331,80331,INCIDENTE,-1.38472,-48.47888,BRASÍLIA,DF,BRASIL,SBBR,2021-10-14,14:05:00,SIM,FINALIZADA,***,NÃO,NULL,0,1,NÃO
80333,80333,80333,80333,80333,INCIDENTE,-14.019444,-52.152222,ÁGUA BOA,MT,BRASIL,SWHP,2021-10-14,10:00:00,SIM,FINALIZADA,***,NÃO,NULL,0,1,NÃO
80328,80328,80328,80328,80328,ACIDENTE,-6.821667,-56.847222,ITAITUBA,PA,BRASIL,***,2021-10-13,19:53:00,SIM,ATIVA,A-113/CENIPA/2021,NÃO,NULL,0,1,NÃO
80329,80329,80329,80329,80329,INCIDENTE GRAVE,-16.625556,-49.349444,GOIÂNIA,GO,BRASIL,SBNV,2021-10-13,12:00:00,SIM,FINALIZADA,***,NÃO,NULL,0,1,NÃO
80325,80325,80325,80325,80325,INCIDENTE,-23.00694444,-47.13444444,CAMPINAS,SP,BRASIL,SBKP,2021-10-11,3:04:00,SIM,FINALIZADA,***,NÃO,NULL,0,1,NÃO
80335,80335,80335,80335,80335,INCIDENTE,-3.775833333,-38.53222222,FORTALEZA,CE,BRASIL,SBFZ,2021-10-11,22:34:00,SIM,FINALIZADA,***,NÃO,NULL,0,1,NÃO
80326,80326,80326,80326,80326,INCIDENTE,-23.00694444,-47.13444444,CAMPINAS,SP,BRASIL,SBKP,2021-10-10,8:50:00,SIM,FINALIZADA,***,NÃO,NULL,0,1,NÃO
80327,80327,80327,80327,80327,INCIDENTE,-1.384722222,-48.47888889,BELÉM,PA,BRASIL,SBBE,2021-10-09,21:40:00,SIM,FINALIZADA,***,NÃO,NULL,0,1,NÃO
80323,80323,80323,80323,80323,INCIDENTE,-5.06055,-42.82444,TERESINA,PI,BRASIL,SBTE,2021-10-08,16:20:00,SIM,FINALIZADA,***,NÃO,NULL,0,1,NÃO
80317,80317,80317,80317,80317,ACIDENTE,-22.98027778,-43.3725,RIO DE JANEIRO,RJ,BRASIL,SBJR,2021-10-06,19:53:00,SIM,ATIVA,A-112/CENIPA/2021,NÃO,NULL,0,1,NÃO
80319,80319,80319,80319,80319,INCIDENTE,-22.19,-47.86,ITIRAPINA,SP,BRASIL,***,2021-10-05,18:20:00,SIM,FINALIZADA,***,NÃO,NULL,0,1,NÃO
80316,80316,80316,80316,80316,INCIDENTE,-23.00694444,-47.13444444,CAMPINAS,SP,BRASIL,SBKP,2021-10-03,16:20:00,SIM,FINALIZADA,***,NÃO,NULL,0,1,NÃO
80984,80984,80984,80984,80984,INCIDENTE GRAVE,NULL,NULL,BARRA DO CHOÇA,BA,BRASIL,SNGW,2021-10-03,12:00:00,SIM,FINALIZADA,***,NÃO,NULL,0,1,SIM
80315,80315,80315,80315,80315,INCIDENTE GRAVE,-16.628056,-49.345556,GOIÂNIA,GO,BRASIL,SBNV,2021-10-01,16:00:00,SIM,FINALIZADA,***,NÃO,NULL,0,1,NÃO
80918,80918,80918,80918,80918,INCIDENTE GRAVE,-13.731389,-57.891667,CAMPO NOVO DO PARECIS,MT,BRASIL,**NI,2021-10-01,12:00:00,SIM,FINALIZADA,***,NÃO,NULL,0,1,NÃO
80311,80311,80311,80311,80311,ACIDENTE,-12.616667,-59.95,VILHENA,RO,BRASIL,***,2021-09-29,15:10:00,SIM,ATIVA,A-111/CENIPA/2021,NÃO,NULL,0,1,NÃO
80312,80312,80312,80312,80312,INCIDENTE GRAVE,-2.42416,-48.24166,TOMÉ-AÇU,PA,BRASIL,**NI,2021-09-29,20:20:00,SIM,FINALIZADA,***,NÃO,NULL,0,1,NÃO
80314,80314,80314,80314,80314,ACIDENTE,-16.637907,-49.208172,GOIÂNIA,GO,BRASIL,SBGO,2021-09-28,15:05:00,SIM,ATIVA,A-110/CENIPA/2021,NÃO,NULL,0,1,SIM
80309,80309,80309,80309,80309,INCIDENTE,-8.713611,-63.902778,PORTO VELHO,RO,BRASIL,SBPV,2021-09-27,18:25:00,SIM,FINALIZADA,***,NÃO,NULL,0,1,NÃO
80308,80308,80308,80308,80308,INCIDENTE,-20.23305556,-45.12833333,SÃO SEBASTIÃO DO OESTE,MG,BRASIL,***,2021-09-25,15:40:00,SIM,FINALIZADA,***,NÃO,NULL,0,1,NÃO
80310,80310,80310,80310,80310,ACIDENTE,-25.217778,-50.1175,PONTA GROSSA,PR,BRASIL,SBPG,2021-09-24,19:10:00,SIM,ATIVA,A-109/CENIPA/2021,NÃO,NULL,0,1,NÃO
80535,80535,80535,80535,80535,INCIDENTE,-10.2333,-62.58055,ARIQUEMES,RO,BRASIL,SJOG,2021-09-24,14:54:00,SIM,FINALIZADA,***,NÃO,NULL,0,1,NÃO
80307,80307,80307,80307,80307,ACIDENTE,-48.100556,-18.973889,UBERLÂNDIA,MG,BRASIL,SJPT,2021-09-22,20:57:00,SIM,ATIVA,A-108/CENIPA/2021,NÃO,NULL,0,1,SIM
80305,80305,80305,80305,80305,INCIDENTE,-22.43,-45.48083,ITAJUBÁ,MG,BRASIL,SNHH,2021-09-21,14:15:00,SIM,FINALIZADA,A DEFINIR,NÃO,NULL,0,1,NÃO
80300,80300,80300,80300,80300,INCIDENTE,-2.669444444,-56.77111111,PARINTINS,AM,BRASIL,SWPI,2021-09-20,0:54:00,SIM,FINALIZADA,***,NÃO,NULL,0,1,NÃO
80313,80313,80313,80313,80313,INCIDENTE,-15.65,-56.1175,CUIABÁ,MT,BRASIL,SBCY,2021-09-20,16:42:00,SIM,FINALIZADA,***,NÃO,NULL,0,1,NÃO
80302,80302,80302,80302,80302,INCIDENTE GRAVE,-12.90861,-38.3225,SALVADOR,BA,BRASIL,SBSV,2021-09-19,18:55:00,SIM,ATIVA,IG-107/CENIPA/2021,NÃO,NULL,0,1,SIM
80303,80303,80303,80303,80303,INCIDENTE,-23.506666,-46.63388,SÃO PAULO,SP,BRASIL,SBMT,2021-09-19,18:30:00,SIM,FINALIZADA,***,NÃO,NULL,0,1,NÃO
80298,80298,80298,80298,80298,ACIDENTE,-23.181667,-46.943611,JUNDIAÍ,SP,BRASIL,SBJD,2021-09-18,14:20:00,SIM,ATIVA,A-106/CENIPA/2021,NÃO,NULL,0,1,NÃO
80299,80299,80299,80299,80299,INCIDENTE,-3.041111,-60.050556,MANAUS,AM,BRASIL,SBEG,2021-09-18,16:51:00,SIM,FINALIZADA,***,NÃO,NULL,0,1,NÃO
80301,80301,80301,80301,80301,ACIDENTE,-0.416944444,-65.03388889,SANTA ISABEL DO RIO NEGRO,AM,BRASIL,***,2021-09-16,17:05:00,SIM,ATIVA,A-105/CENIPA/2021,NÃO,NULL,0,1,NÃO
80304,80304,80304,80304,80304,INCIDENTE,-1.38472,-48.47888,BRASÍLIA,DF,BRASIL,SBBR,2021-09-16,15:34:00,SIM,FINALIZADA,***,NÃO,NULL,0,1,NÃO
80295,80295,80295,80295,80295,INCIDENTE,-19.85194444,-43.95055556,BELO HORIZONTE,MG,BRASIL,SBBH,2021-09-15,18:36:00,SIM,FINALIZADA,***,NÃO,NULL,0,1,NÃO
80296,80296,80296,80296,80296,INCIDENTE,-20.19925,-43.45258333,MARIANA,MG,BRASIL,SWNG,2021-09-15,18:30:00,SIM,FINALIZADA,***,NÃO,NULL,0,1,NÃO
80297,80297,80297,80297,80297,INCIDENTE,-19.85194444,-43.95055556,BELO HORIZONTE,MG,BRASIL,SBBH,2021-09-15,18:32:00,SIM,FINALIZADA,***,NÃO,NULL,0,1,NÃO
80294,80294,80294,80294,80294,ACIDENTE,-22.692505,-47.624288,PIRACICABA,SP,BRASIL,SDPW,2021-09-14,12:00:00,NÃO,ATIVA,A-104/CENIPA/2021,NÃO,NULL,0,1,NÃO
80292,80292,80292,80292,80292,INCIDENTE,-25.53166667,-49.17611111,CURITIBANOS,SC,BRASIL,SBCT,2021-09-11,3:55:00,SIM,FINALIZADA,***,NÃO,NULL,0,1,NÃO
80285,80285,80285,80285,80285,ACIDENTE,-5.39388,-57.17055,ITAITUBA,PA,BRASIL,**NI,2021-09-10,13:43:00,SIM,ATIVA,A-102/CENIPA/2021,NÃO,NULL,0,1,NÃO
80286,80286,80286,80286,80286,ACIDENTE,-3.002534,-60.094019,MANAUS,AM,BRASIL,***,2021-09-10,14:00:00,SIM,ATIVA,A-103/CENIPA/2021,NÃO,NULL,0,1,NÃO
80289,80289,80289,80289,80289,INCIDENTE GRAVE,-27.610278,-48.671944,SÃO JOSÉ,SC,BRASIL,SSKT,2021-09-10,18:30:00,SIM,FINALIZADA,***,NÃO,NULL,0,1,SIM
80290,80290,80290,80290,80290,INCIDENTE,-15.863056,-47.921667,BRASÍLIA,DF,BRASIL,SBBR,2021-09-10,14:45:00,SIM,FINALIZADA,***,NÃO,NULL,0,1,NÃO
80291,80291,80291,80291,80291,INCIDENTE,-22.81,-43.25055556,RIO DE JANEIRO,RJ,BRASIL,SBGL,2021-09-09,23:25:00,SIM,FINALIZADA,***,NÃO,NULL,0,1,NÃO
80276,80276,80276,80276,80276,INCIDENTE,-23.43555556,-46.47305556,GUARULHOS,SP,BRASIL,SBGR,2021-09-08,12:05:00,SIM,FINALIZADA,***,NÃO,NULL,0,1,NÃO
80437,80437,80437,80437,80437,INCIDENTE,-23.43555556,-46.47305556,GUARULHOS,SP,BRASIL,SBGR,2021-09-08,12:05:00,SIM,FINALIZADA,***,NÃO,NULL,0,1,NÃO
80284,80284,80284,80284,80284,ACIDENTE,-12.118888,-58.00483,BRASNORTE,MT,BRASIL,***,2021-09-07,22:00:00,SIM,FINALIZADA,***,NÃO,NULL,0,1,NÃO
80273,80273,80273,80273,80273,ACIDENTE,-23.556667,-46.033889,BIRITIBA-MIRIM,SP,BRASIL,***,2021-09-06,14:35:00,SIM,ATIVA,A-100/CENIPA/2021,NÃO,NULL,0,1,NÃO
80277,80277,80277,80277,80277,INCIDENTE,-19.62444444,-43.97194444,CONFINS,MG,BRASIL,SBCF,2021-09-06,20:58:00,SIM,FINALIZADA,***,NÃO,NULL,0,1,NÃO
80272,80272,80272,80272,80272,ACIDENTE,3.146111,-62.230278,ALTO ALEGRE,RR,BRASIL,SJNC,2021-09-05,19:00:00,SIM,ATIVA,A-099/CENIPA/2021,NÃO,NULL,0,1,SIM
80275,80275,80275,80275,80275,INCIDENTE,-25.40055556,-49.23361111,CURITIBA,PR,BRASIL,SBBI,2021-09-03,16:37:00,SIM,FINALIZADA,***,NÃO,NULL,0,1,NÃO
80270,80270,80270,80270,80270,INCIDENTE GRAVE,-6.235278,-57.775833,JACAREACANGA,PA,BRASIL,SBEK,2021-09-02,13:30:00,SIM,FINALIZADA,***,NÃO,NULL,0,1,NÃO
80271,80271,80271,80271,80271,INCIDENTE,-15.65,-56.1175,CUIABÁ,MT,BRASIL,SBCY,2021-09-02,20:05:00,SIM,FINALIZADA,***,NÃO,NULL,0,1,NÃO
80288,80288,80288,80288,80288,INCIDENTE,-3.041111111,-60.05055556,MANAUS,AM,BRASIL,SBEG,2021-09-02,12:25:00,SIM,FINALIZADA,***,NÃO,NULL,0,1,NÃO
80266,80266,80266,80266,80266,INCIDENTE,-21.79305,-43.38555,JUIZ DE FORA,MG,BRASIL,SBJF,2021-09-01,18:01:00,SIM,FINALIZADA,***,NÃO,NULL,0,1,NÃO
80274,80274,80274,80274,80274,INCIDENTE,-29.99472222,-51.17111111,PORTO ALEGRE,RS,BRASIL,SBPA,2021-09-01,2:20:00,SIM,FINALIZADA,***,NÃO,NULL,0,1,NÃO
80263,80263,80263,80263,80263,INCIDENTE,-22.91,-43.1625,RIO DE JANEIRO,RJ,BRASIL,SBRJ,2021-08-31,12:10:00,SIM,FINALIZADA,***,NÃO,NULL,0,1,NÃO
80265,80265,80265,80265,80265,INCIDENTE GRAVE,-23.51,-46.63,SÃO PAULO,SP,BRASIL,SBMT,2021-08-31,16:50:00,SIM,FINALIZADA,***,NÃO,NULL,0,1,NÃO
80267,80267,80267,80267,80267,INCIDENTE,-23.00694444,-47.13444444,CAMPINAS,SP,BRASIL,SBKP,2021-08-30,1:26:00,SIM,FINALIZADA,***,NÃO,NULL,0,1,NÃO
80269,80269,80269,80269,80269,INCIDENTE,-29.99472222,-51.17111111,PORTO ALEGRE,RS,BRASIL,SBPA,2021-08-30,14:20:00,SIM,FINALIZADA,***,NÃO,NULL,0,1,NÃO
80262,80262,80262,80262,80262,INCIDENTE GRAVE,-20.42277,-40.33333,VILA VELHA,ES,BRASIL,SIVU,2021-08-28,15:15:00,SIM,FINALIZADA,***,NÃO,NULL,0,1,SIM
80278,80278,80278,80278,80278,INCIDENTE,-29.991944 S,-51.324444 W,PORTO ALEGRE,RS,BRASIL,SBPA,2021-08-28,20:20:00,SIM,FINALIZADA,***,NÃO,NULL,0,1,NÃO
80261,80261,80261,80261,80261,INCIDENTE GRAVE,-26.558047,-48.699469,ARAQUARI,SC,BRASIL,SWON,2021-08-26,16:05:00,SIM,ATIVA,IG-101/CENIPA/2021,NÃO,NULL,0,1,SIM
80359,80359,80359,80359,80359,ACIDENTE,-25.685278,-53.064722,DOIS VIZINHOS,PR,BRASIL,SIZM,2021-08-26,13:45:00,SIM,ATIVA,A-118/CENIPA/2021,NÃO,NULL,0,1,SIM
80268,80268,80268,80268,80268,INCIDENTE,-3.072778,-60.021111,MANAUS,AM,BRASIL,SWFN,2021-08-25,18:50:00,SIM,FINALIZADA,***,NÃO,NULL,0,1,NÃO
80287,80287,80287,80287,80287,INCIDENTE,-21.13638889,-47.77666667,RIBEIRÃO PRETO,SP,BRASIL,SBRP,2021-08-25,20:55:00,SIM,FINALIZADA,***,NÃO,NULL,0,1,NÃO
80260,80260,80260,80260,80260,INCIDENTE,-22.650000 S,-51.383333,PORECATU,PR,BRASIL,SWME,2021-08-24,10:38:00,SIM,FINALIZADA,***,NÃO,NULL,0,1,NÃO
80254,80254,80254,80254,80254,INCIDENTE GRAVE,-9.190278,-71.946944,JORDÃO,AC,BRASIL,SJOD,2021-08-21,18:30:00,SIM,FINALIZADA,***,NÃO,NULL,0,1,SIM
80256,80256,80256,80256,80256,INCIDENTE,-42.0675,-22.92166667,CABO FRIO,RJ,BRASIL,SBCB,2021-08-21,15:10:00,SIM,FINALIZADA,***,NÃO,NULL,0,1,NÃO
80255,80255,80255,80255,80255,INCIDENTE,-19.85194444,-43.95055556,BELO HORIZONTE,MG,BRASIL,SBBH,2021-08-18,20:45:00,SIM,FINALIZADA,***,NÃO,NULL,0,1,NÃO
80257,80257,80257,80257,80257,ACIDENTE,-15.430833,-54.699722,DOM AQUINO,MT,BRASIL,***,2021-08-18,16:00:00,SIM,FINALIZADA,***,NÃO,NULL,0,1,NÃO
80259,80259,80259,80259,80259,INCIDENTE,-23.00694444,-47.13444444,CAMPINAS,SP,BRASIL,SBKP,2021-08-18,12:45:00,SIM,FINALIZADA,***,NÃO,NULL,0,1,NÃO
80251,80251,80251,80251,80251,INCIDENTE,-1.384722222,-48.47888889,BELÉM,PA,BRASIL,SBBE,2021-08-17,15:45:00,SIM,FINALIZADA,***,NÃO,NULL,0,1,NÃO
80247,80247,80247,80247,80247,INCIDENTE,-8.713611111,-63.90277778,PORTO VELHO,RO,BRASIL,SBPV,2021-08-16,2:30:00,SIM,FINALIZADA,***,NÃO,NULL,0,1,NÃO
80243,80243,80243,80243,80243,INCIDENTE,-19.85194,-43.95055,BELO HORIZONTE,MG,BRASIL,SBBH,2021-08-15,17:14:00,SIM,FINALIZADA,***,NÃO,NULL,0,1,NÃO
80244,80244,80244,80244,80244,INCIDENTE,-22.978841,-46.537076°,BRAGANÇA PAULISTA,SP,BRASIL,SBBP,2021-08-15,15:20:00,SIM,FINALIZADA,***,NÃO,NULL,0,1,NÃO
80245,80245,80245,80245,80245,INCIDENTE,-8.12638,-34.92277,RECIFE,PE,BRASIL,SBRF,2021-08-15,15:05:00,SIM,FINALIZADA,***,NÃO,NULL,0,1,NÃO
80249,80249,80249,80249,80249,INCIDENTE,-3.041111111,-60.05055556,MANAUS,AM,BRASIL,SBEG,2021-08-14,15:40:00,SIM,FINALIZADA,***,NÃO,NULL,0,1,NÃO
80238,80238,80238,80238,80238,INCIDENTE GRAVE,-20.457222,-50.0025,VOTUPORANGA,SP,BRASIL,SDVG,2021-08-11,19:09:00,SIM,ATIVA,IG-098/CENIPA/2021,NÃO,NULL,0,1,NÃO
80239,80239,80239,80239,80239,INCIDENTE,-19.85194444,-43.86722222,BELO HORIZONTE,MG,BRASIL,SBBH,2021-08-11,19:58:00,SIM,FINALIZADA,***,NÃO,NULL,0,1,NÃO
80237,80237,80237,80237,80237,ACIDENTE,-22.019601,-54.794052,ITAPORÃ,MS,BRASIL,SSPO,2021-08-10,21:00:00,SIM,ATIVA,A-096/CENIPA/2021,NÃO,NULL,0,1,NÃO
80240,80240,80240,80240,80240,INCIDENTE,-16.625556,-49.349444,GOIÂNIA,GO,BRASIL,SBNV,2021-08-10,14:15:00,SIM,FINALIZADA,***,NÃO,NULL,0,1,NÃO
80242,80242,80242,80242,80242,INCIDENTE,-15.650382,-56.118069,VÁRZEA GRANDE,MT,BRASIL,SBCY,2021-08-10,13:50:00,SIM,FINALIZADA,***,NÃO,NULL,0,1,NÃO
80235,80235,80235,80235,80235,INCIDENTE,-19.011944,-57.671389,CORUMBÁ,MS,BRASIL,SBCR,2021-08-09,20:55:00,SIM,FINALIZADA,***,NÃO,NULL,0,1,NÃO
80233,80233,80233,80233,80233,ACIDENTE,-16.293903,-56.643922,POCONÉ,MT,BRASIL,***,2021-08-08,12:30:00,SIM,ATIVA,A-097/CENIPA/2021,NÃO,NULL,0,1,NÃO
80230,80230,80230,80230,80230,INCIDENTE,-14.815,-39.03333333,ILHÉUS,BA,BRASIL,SBIL,2021-08-06,15:04:00,SIM,FINALIZADA,***,NÃO,NULL,0,2,NÃO
80231,80231,80231,80231,80231,INCIDENTE GRAVE,-29.19555556,-51.18972222,CAXIAS DO SUL,RS,BRASIL,SBCX,2021-08-06,16:59:00,SIM,ATIVA,IG-095/CENIPA/2021,NÃO,NULL,0,1,NÃO
80248,80248,80248,80248,80248,INCIDENTE GRAVE,-52.48805,-18.83916,CHAPADÃO DO SUL,MS,BRASIL,SSCD,2021-08-06,20:00:00,SIM,FINALIZADA,***,NÃO,NULL,0,1,SIM
80228,80228,80228,80228,80228,INCIDENTE GRAVE,\t-30.0501\t,\t-51.4459\t,ELDORADO DO SUL,RS,BRASIL,SIXE,2021-08-05,15:55:00,SIM,FINALIZADA,***,NÃO,NULL,0,1,NÃO
80229,80229,80229,80229,80229,INCIDENTE,-23.060833,-43.788611,ITAGUAÍ,RJ,BRASIL,***,2021-08-05,15:30:00,SIM,FINALIZADA,***,NÃO,NULL,0,1,NÃO
80225,80225,80225,80225,80225,INCIDENTE,\t-25.403333\t,\t-49.233611\t,CURITIBA,PR,BRASIL,SBBI,2021-08-04,13:45:00,SIM,FINALIZADA,***,NÃO,NULL,0,1,NÃO
80252,80252,80252,80252,80252,ACIDENTE,2.548333,-62.7275,IRACEMA,RR,BRASIL,***,2021-08-04,11:45:00,SIM,FINALIZADA,A-094/CENIPA/2021,SIM,9/21/2022,1,1,NÃO
80224,80224,80224,80224,80224,INCIDENTE,-4.791111,-65.637222,COARI,AM,BRASIL,***,2021-08-02,16:59:00,SIM,FINALIZADA,***,NÃO,NULL,0,1,NÃO
80227,80227,80227,80227,80227,ACIDENTE,-23.638333,-53.555278,UMUARAMA,PR,BRASIL,***,2021-08-02,14:30:00,SIM,ATIVA,A-093/CENIPA/2021,NÃO,NULL,0,1,NÃO
80218,80218,80218,80218,80218,ACIDENTE,-7.770556,-60.377778,APUÍ,AM,BRASIL,SNLM,2021-08-01,14:20:00,SIM,ATIVA,A-092/CENIPA/2021,NÃO,NULL,0,1,SIM
80236,80236,80236,80236,80236,ACIDENTE,-16.713889,-56.7075,POCONÉ,MT,BRASIL,***,2021-08-01,22:00:00,SIM,FINALIZADA,***,NÃO,NULL,0,1,NÃO
80221,80221,80221,80221,80221,INCIDENTE GRAVE,-13.90611,-38.94,MARAÚ,BA,BRASIL,SIRI,2021-07-31,13:15:00,SIM,ATIVA,IG-091/CENIPA/2021,NÃO,NULL,0,1,SIM
80219,80219,80219,80219,80219,INCIDENTE GRAVE,\t-25.002778\t,\t-53.584444\t,CASCAVEL,PR,BRASIL,***,2021-07-30,16:50:00,SIM,FINALIZADA,***,NÃO,NULL,0,1,NÃO
80220,80220,80220,80220,80220,INCIDENTE,\t-25.403333\t,\t-49.233611\t,CURITIBA,PR,BRASIL,SBBI,2021-07-29,10:26:00,SIM,FINALIZADA,***,NÃO,NULL,0,1,NÃO
80212,80212,80212,80212,80212,INCIDENTE,2.15,-50.89472,AMAPÁ,AP,BRASIL,***,2021-07-28,18:00:00,SIM,FINALIZADA,***,NÃO,NULL,0,1,NÃO
80216,80216,80216,80216,80216,INCIDENTE,-18.88361,-48.22527,UBERLÂNDIA,MG,BRASIL,SBUL,2021-07-28,14:40:00,SIM,FINALIZADA,***,NÃO,NULL,0,1,NÃO
80208,80208,80208,80208,80208,INCIDENTE,-23.506667,-46.633889,SÃO PAULO,SP,BRASIL,SBMT,2021-07-27,19:45:00,SIM,FINALIZADA,***,NÃO,NULL,0,1,NÃO
80207,80207,80207,80207,80207,INCIDENTE,-9.868333,-67.898056,RIO BRANCO,AC,BRASIL,SBRB,2021-07-26,16:17:00,SIM,FINALIZADA,***,NÃO,NULL,0,1,NÃO
80234,80234,80234,80234,80234,INCIDENTE,-23.626111,-46.656389,SÃO PAULO,SP,BRASIL,SBSP,2021-07-26,13:20:00,SIM,FINALIZADA,***,NÃO,NULL,0,1,NÃO
80199,80199,80199,80199,80199,INCIDENTE,-23.128333,-46.574722,ATIBAIA,SP,BRASIL,SDTB,2021-07-25,11:50:00,SIM,FINALIZADA,***,NÃO,NULL,0,1,NÃO
80200,80200,80200,80200,80200,INCIDENTE GRAVE,-23.005278,-46.636944,BRAGANÇA PAULISTA,SP,BRASIL,SDVH,2021-07-25,12:25:00,SIM,FINALIZADA,A DEFINIR,NÃO,NULL,0,1,NÃO
80201,80201,80201,80201,80201,INCIDENTE,-23.043333,-45.775556,CAÇAPAVA,SP,BRASIL,SDIP,2021-07-25,17:21:00,SIM,FINALIZADA,***,NÃO,NULL,0,1,NÃO
80203,80203,80203,80203,80203,ACIDENTE,-21.388954,-51.65324,TUPI PAULISTA,SP,BRASIL,***,2021-07-24,20:10:00,SIM,ATIVA,A-090/CENIPA/2021,NÃO,NULL,0,1,NÃO
80209,80209,80209,80209,80209,INCIDENTE,-16.63,-49.3494,GOIÂNIA,GO,BRASIL,SBNV,2021-07-24,13:50:00,SIM,FINALIZADA,***,NÃO,NULL,0,1,NÃO
80202,80202,80202,80202,80202,INCIDENTE,-22.92083,-42.071388,CAMPOS DOS GOYTACAZES,RJ,BRASIL,***,2021-07-23,11:25:00,SIM,FINALIZADA,***,NÃO,NULL,0,1,NÃO
80205,80205,80205,80205,80205,INCIDENTE,-3.041111111,-60.05055556,MANAUS,AM,BRASIL,SBEG,2021-07-23,11:15:00,SIM,FINALIZADA,***,NÃO,NULL,0,1,NÃO
80206,80206,80206,80206,80206,INCIDENTE,-23.00694444,-47.13444444,CAMPINAS,SP,BRASIL,SBKP,2021-07-23,22:00:00,SIM,FINALIZADA,***,NÃO,NULL,0,1,NÃO
